place_id,name,cre_id,longitude,latitude,regular_price,premium_price,diesel_price,state,municipality,address
2807,ESTACIÓN DE SERVICIO NUEVO MILENIO S.A. DE C.V.,PL/1000/EXP/ES/2015,-99.08612,19.44235,23.99,26.49,25.99,Ciudad de Mexico,Venustiano Carranza,Calle Norte 180 No. 574
11704,SERVICIO DELTA S.A. DE C.V.,PL/10000/EXP/ES/2015,-101.6221,21.09075,22.95,,24.99,,,
11705,SERVICIO LAS TORRES NORTE S.A. DE C.V.,PL/10001/EXP/ES/2015,-101.6628,21.14976,22.95,,,,,
11706,OPERADORA HB S.A. DE C.V.,PL/10002/EXP/ES/2015,-96.15018,19.1045,23.98,24.96,25.99,,,
11707,OPERADORA HB S.A. DE C.V.,PL/10003/EXP/ES/2015,-96.1013,19.08608,23.9,25.18,25.98,,,
11708,OPERADORA JOSFA S.A. DE C.V.,PL/10004/EXP/ES/2015,-101.614,21.08429,22.95,,,,,
11396,GASOIL TECNOLOGIAS S. A. P. I. DE C. V.,PL/10005/EXP/ES/2015,-97.30963,19.80131,24.05,,25.85,,,
11397,GASOIL TECNOLOGIAS S. A. P. I. DE C. V.,PL/10006/EXP/ES/2015,-96.18413,19.21491,22.99,23.88,24.99,,,
11398,ICVER S.A. DE C.V.,PL/10007/EXP/ES/2015,-96.99704,18.90649,23.98,24.99,25.69,,,
11399,HIDROSINA PLUS S. A. P. I. DE C. V.,PL/10008/EXP/ES/2015,-92.2475,14.90402,23.19,24.09,,,,
11408,GRUPO OCTANO S.A. DE C.V.,PL/10009/EXP/ES/2015,-103.4212,19.53052,26.19,27.19,27.14,,,
2808,ESTACIÓN DE SERVICIO ANDALUCÍA S.A. DE C.V.,PL/1001/EXP/ES/2015,-99.04313,19.59132,24.79,26.29,25.99,,,
11409,GRUPO OCTANO S.A. DE C.V.,PL/10010/EXP/ES/2015,-103.3895,19.55496,26.04,27.09,27.04,,,
11401,ESTACIONES GARE S.A. DE C.V.,PL/10011/EXP/ES/2015,-98.1106,25.98728,,,,,,
11402,MARTHA PATRICIA VARGAS VEGA,PL/10012/EXP/ES/2015,-101.0561,20.37656,24.99,25.17,26.37,,,
11404,MARÍA GABRIELA VARGAS VEGA,PL/10013/EXP/ES/2015,0,0,,,,,,
11403,HOYO TRES S.A. DE C.V.,PL/10014/EXP/ES/2015,-87.34275,20.35971,25.92,26.92,27.72,,,
11405,SERVICIOS DIVERSOS DEL CENTRO S.A. DE C.V.,PL/10015/EXP/ES/2015,-100.8037,20.54821,23.39,25.17,25.99,,,
11406,GASOLINERA MEOQUI SA DE CV,PL/10016/EXP/ES/2015,0,0,,,,,,
11400,SERVICIO PEDREGAL DEL GOLFO S.A. DE C.V.,PL/10017/EXP/ES/2015,-93.50216,17.62291,24.99,25.89,26.79,,,
11407,SÚPER SERVICIO CHIGNAUTLA S.A. DE C.V.,PL/10018/EXP/ES/2015,-97.38714,19.8121,24.59,25.09,26.19,,,
11410,SERVICIO STA EUGENIA S.A. DE C.V.,PL/10019/EXP/ES/2015,-101.3011,19.68798,23.97,25.07,26.13,,,
2825,SERVICIO CIPRESES S.A. DE C.V.,PL/1002/EXP/ES/2015,-99.06293,19.30509,24.99,26.59,25.99,Ciudad de Mexico,Tlahuac,Avenida Tláhuac No. 5243
11411,SERVICIOS GASOLINEROS DE MÉXICO S.A. DE C.V.,PL/10020/EXP/ES/2015,-99.5336,27.42132,21.19,23.19,26.45,,,
11412,SERVICIOS GASOLINEROS DE MÉXICO S.A. DE C.V.,PL/10021/EXP/ES/2015,-100.2139,25.69357,25.39,27.89,26.99,,,
11413,SERVICIO MONTAÑAS DEL SUR S.A. DE C.V.,PL/10022/EXP/ES/2015,-99.16317,17.59403,25.49,26.43,27.23,,,
11414,SERVICIO MONTAÑAS DEL SUR S.A. DE C.V.,PL/10023/EXP/ES/2015,-99.17475,17.60546,25.49,26.43,,,,
11415,SERVICIO MONTAÑAS DEL SUR S.A. DE C.V.,PL/10024/EXP/ES/2015,-99.63666,16.78118,25.0,25.99,26.8,,,
11417,SINERGIA DE ENERGÉTICOS S.A. DE C.V.,PL/10025/EXP/ES/2015,-98.27732,19.10791,24.99,26.19,27.09,,,
11418,"ESTACION DE SERVICIOS EL CAPITAN, SA DE CV ",PL/10026/EXP/ES/2015,-115.1896,32.35653,24.79,,,,,
11419,"ESTACIONES MEXSON, S.A. DE C.V.",PL/10027/EXP/ES/2015,-115.4627,32.60983,23.49,23.99,,,,
11420,ESTACIÓN DE SERVICIOS LA MIXTEQUILLA S.A. DE C.V.,PL/10028/EXP/ES/2015,-95.98717,18.72145,23.99,24.2,24.99,,,
11421,JORGE GUTIERREZ JIMÉNEZ,PL/10029/EXP/ES/2015,-98.5238,19.9736,24.23,25.01,26.06,,,
2841,GASOLINERA GUADALAJARA S.A. DE C.V.,PL/1003/EXP/ES/2015,-102.3397,20.68204,24.8,25.4,25.9,,,
11416,SERVICIOS GASOLINEROS SAN CARLOS S.A. DE C.V.,PL/10030/EXP/ES/2015,-99.1945,18.95421,24.26,25.49,25.89,,,
11422,AUTO GAS DE MONCLOVA S.A. DE C.V.,PL/10031/EXP/ES/2015,-101.421,26.90775,22.49,26.2,,,,
11424,DANAE ALCESTES LAVINIA CORDOVA MORAN,PL/10032/EXP/ES/2015,-98.55925,17.80547,25.4,26.4,27.65,,,
11423,GRUPO SAYATH S.A. DE C.V.,PL/10033/EXP/ES/2015,-97.79624,25.66648,,,,,,
11425,"ESTACION DE SERVICIOS EL CAPITAN, SA DE CV ",PL/10034/EXP/ES/2015,-114.8504,32.63555,22.99,,25.29,,,
11426,MIGUEL ANGEL TERAN PARRA,PL/10035/EXP/ES/2015,-111.1136,30.54536,26.29,27.99,27.29,,,
11429,SERVICIO SAN JOSÉ KUCHE S.A. DE C.V.,PL/10036/EXP/ES/2015,-89.53171,21.0577,24.49,25.64,26.84,,,
11430,"SERVICIOS GASOLINEROS DE MEXICO, S.A. DE C.V.",PL/10037/EXP/ES/2015,-100.1944,25.50908,25.99,27.89,,,,
11428,MAYRA Y GISSEL S.A. DE C.V.,PL/10038/EXP/ES/2015,-98.73369,18.88581,24.69,25.19,26.29,,,
11431,EDARSI S.A. DE C.V.,PL/10039/EXP/ES/2015,-97.77251,21.79868,24.34,25.24,26.14,,,
3158,SERVICIO LOS ANDES S.A. DE C.V.,PL/1004/EXP/ES/2015,-99.03324,19.60065,24.49,25.99,25.99,,,
11427,JOSÉ BENJAMIN FRAGOSO LUNA,PL/10040/EXP/ES/2015,-94.68028,18.02826,23.9,25.45,26.2,,,
11432,NANCY MARTINEZ GONZÁLEZ,PL/10041/EXP/ES/2015,-96.97816,19.39169,24.36,25.45,25.7,,,
11433,SERVICIO SAN SALVADOR S.A. DE C.V.,PL/10042/EXP/ES/2015,-98.51459,19.26545,24.19,,26.09,,,
11434,SESGAS S.A. DE C.V.,PL/10043/EXP/ES/2015,-97.02035,19.0257,24.24,24.77,26.2,,,
11439,COMBUSTIBLES DE CHALCO S.A. DE C.V.,PL/10044/EXP/ES/2015,-98.89622,19.26069,,,,,,
11440,SERVICIO CERANO S.A. DE C.V.,PL/10045/EXP/ES/2015,-101.3723,20.12178,24.99,26.79,26.49,,,
11441,SERVICIO TOPIA S.A. DE C.V.,PL/10046/EXP/ES/2015,-106.5721,25.21429,26.2,,27.98,,,
11442,SERVICIO PAR VIAL S.A. DE C.V.,PL/10047/EXP/ES/2015,-99.1847,18.88836,24.0,25.1,25.85,,,
11443,SERVICIO GLORIETA SAN FERNANDO S.A. DE C.V.,PL/10048/EXP/ES/2015,-89.61961,20.9881,,,,,,
11436,HORIZONTE ENERGÉTICO S.A. DE C.V.,PL/10049/EXP/ES/2015,-98.97215,18.79492,,,,,,
2767,SERVICIO IRRIGACIÓN S.A. DE C.V.,PL/1005/EXP/ES/2015,-100.8031,20.53727,23.69,25.16,,,,
11437,SERVICIOS GASOLINEROS DE MEXICO S.A. DE C.V.,PL/10050/EXP/ES/2015,-101.1807,20.12552,24.99,26.99,26.98,,,
11438,SERVI BENZIN SA DE CV,PL/10051/EXP/ES/2015,-96.47381,15.73297,25.55,26.99,27.78,,,
11435,ES SAN GABRIEL S.A. DE C.V.,PL/10052/EXP/ES/2015,-99.5657,27.46814,20.99,22.99,26.24,,,
11444,OPERADORA DE COMBUSTIBLE XOLOX S.A. DE C.V.,PL/10053/EXP/ES/2015,-98.99641,19.77316,23.83,24.93,25.83,,,
11445,SERVICIO GUIPOLLALI S.A. DE C.V.,PL/10054/EXP/ES/2015,-99.64202,18.96653,,,,,,
11446,GRUPO ALDAMA S.A. DE C.V.,PL/10055/EXP/ES/2015,-103.4406,24.28553,24.87,26.03,26.28,,,
11447,CARLOS MORALES PÉREZ,PL/10056/EXP/ES/2015,-103.3971,24.28975,24.87,26.03,26.28,,,
11448,CARLOS MORALES PÉREZ,PL/10057/EXP/ES/2015,-103.7059,24.86854,25.09,26.98,26.69,,,
11449,KEYAPAAL S.A. DE C.V.,PL/10058/EXP/ES/2015,-103.9706,18.93461,,26.5,26.85,,,
11450,SERVICIO SYC S.A. DE C.V.,PL/10059/EXP/ES/2015,-105.4713,28.20065,24.14,25.69,24.99,,,
3100,GRUPO MACRUZ S.A. DE C.V.,PL/1006/EXP/ES/2015,-99.21472,19.46206,24.49,26.49,26.99,,,
11451,PETROLEOS Y COMBUSTIBLES DEL CABO S.A. DE C.V.,PL/10060/EXP/ES/2015,-109.7089,23.09428,25.4,25.85,26.95,,,
11452,SERVIECOLOGICOS S.A. DE C.V.,PL/10061/EXP/ES/2015,-103.1901,20.40594,24.99,26.3,26.35,,,
11453,PETROLEOS Y COMBUSTIBLES DEL CABO S.A. DE C.V.,PL/10062/EXP/ES/2015,-109.7094,23.06148,25.98,26.98,27.3,,,
11454,ESTACIÓN LA VICTORIA S.A. DE C.V.,PL/10063/EXP/ES/2015,-115.4357,32.60459,21.99,24.99,25.99,,,
11455,ESTACIÓN DE SERVICIO JILOTZINGO S.A. DE C.V.,PL/10064/EXP/ES/2015,-99.04546,19.86676,24.39,25.19,25.85,,,
11456,QUMAR GASOLINERAS S.A. DE C.V.,PL/10065/EXP/ES/2015,-99.23881,19.9142,24.77,25.57,26.47,,,
11457,"ESTACION PIRU, S.A. DE C.V.",PL/10066/EXP/ES/2015,-117.0507,32.53447,23.99,25.49,,,,
11458,YUYO COMERCIAL S.A. DE C.V.,PL/10067/EXP/ES/2015,-93.18099,18.06138,,,,,,
11459,MANUEL FRANCISCO TORRES NAVARRO,PL/10068/EXP/ES/2015,-103.8827,23.47933,25.42,,27.03,,,
11460,ESTACIÓN HUEXOTITLA S. DE R. L. DE C. V.,PL/10069/EXP/ES/2015,-98.22366,19.03144,23.89,24.69,,,,
3043,COMBU-EXPRESS S.A. DE C.V.,PL/1007/EXP/ES/2015,-103.4685,19.6921,26.24,27.22,27.18,,,
11461,GASOLNAT S.A. DE C.V.,PL/10070/EXP/ES/2015,-98.15479,19.05175,23.6,24.69,25.49,,,
11462,SERVICIO LAS CUPULAS S.A. DE C.V.,PL/10071/EXP/ES/2015,-98.35149,19.21002,23.99,24.99,25.95,,,
11463,RZ CAPITAL S.A. DE C.V.,PL/10072/EXP/ES/2015,-98.23562,19.05941,23.71,24.89,24.86,,,
11464,PUEBLA AVANZA S. DE R. L. DE C. V.,PL/10073/EXP/ES/2015,-98.3619,19.21996,23.99,24.99,25.95,,,
11465,MAS GAS DE APODACA S.A. DE C.V.,PL/10074/EXP/ES/2015,-100.2314,25.74438,23.98,26.28,25.78,,,
11466,JOSÉ LUIS SÁNCHEZ RODRÍGUEZ,PL/10075/EXP/ES/2015,-99.003,18.62763,24.6,25.62,26.45,,,
11467,EL NUEVO SERVICIO PROLONGACIÓN REFORMA S.A. DE C.V.,PL/10076/EXP/ES/2015,-98.22738,19.06035,22.95,24.85,24.8,,,
11468,OPERADORA INTERGASOLINERAS S.A. DE C.V.,PL/10077/EXP/ES/2015,-99.60115,19.26405,,,,,,
11469,OPERADORA INTERGASOLINERAS S.A. DE C.V.,PL/10078/EXP/ES/2015,-99.18304,19.73519,,,,,,
11471,HERSAN CORPORATIVO S.A. DE C.V.,PL/10079/EXP/ES/2015,-115.4111,32.62451,23.28,24.58,,,,
2991,COMBU-EXPRESS S.A. DE C.V.,PL/1008/EXP/ES/2015,-103.4794,19.70312,26.24,27.22,27.18,,,
11470,OPERADORA INTERGASOLINERAS S.A. DE C.V.,PL/10080/EXP/ES/2015,-99.53442,19.30093,23.79,26.99,25.39,,,
11473,RAMÓN HERNÁNDEZ ANGEL,PL/10081/EXP/ES/2015,-102.5791,20.67326,24.4,26.2,24.96,,,
11474,HERSAN CORPORATIVO S.A. DE C.V.,PL/10082/EXP/ES/2015,-115.4344,32.63439,23.47,24.97,,,,
11475,HERSAN CORPORATIVO S.A. DE C.V.,PL/10083/EXP/ES/2015,-115.5017,32.61306,23.28,24.63,,,,
11476,NACIONAL DE COMBUSTIBLES Y LUBRICANTES S.A. DE C.V.,PL/10084/EXP/ES/2015,-99.17435,19.41792,24.99,26.59,,Ciudad de Mexico,Cuauhtemoc,Avenida Durango S/N Esquina Veracruz
11477,SERVICIO SAN PEDRO DE LOS SAUCES S.A. DE C.V.,PL/10085/EXP/ES/2015,-101.1326,19.77545,24.8,25.85,26.5,,,
11478,AUTO SERVICIO CASA MAGNA S.A. DE C.V.,PL/10086/EXP/ES/2015,-115.476,32.59078,23.99,25.49,,,,
11479,NACIONAL DE COMBUSTIBLES Y LUBRICANTES S.A. DE C.V.,PL/10087/EXP/ES/2015,-99.15044,19.45354,24.99,,,Ciudad de Mexico,Cuauhtemoc,Ricardo Flores Magon No. 226
11480,AUTO SERVICIO CASA MAGNA S.A. DE C.V.,PL/10088/EXP/ES/2015,-115.3268,32.61385,23.49,25.59,25.89,,,
11481,RAMIRO JIMÉNEZ CASTRO,PL/10089/EXP/ES/2015,-100.993,19.99666,24.65,,26.65,,,
2964,COMBU-EXPRESS S.A. DE C.V.,PL/1009/EXP/ES/2015,-103.4776,19.68044,26.24,27.22,27.18,,,
11472,FRANCISCO CARRANZA FAMANIA,PL/10090/EXP/ES/2015,-108.331,25.54686,24.8,25.4,26.4,,,
11482,ESTACIÓN DE SERVICIO PYOTR S.A. DE C.V.,PL/10091/EXP/ES/2015,-103.4754,20.53395,23.99,24.99,25.59,,,
11484,ESTACIÓN DE SERVICIO MARINA GUAYMENSE S.A. DE C.V.,PL/10092/EXP/ES/2015,-110.869,27.87804,,,,,,
11483,GAS COMPANY S.A. DE C.V.,PL/10093/EXP/ES/2015,-97.72188,19.00189,23.69,24.95,25.4,,,
11485,GAS COMPANY S.A. DE C.V.,PL/10094/EXP/ES/2015,-97.7244,18.9995,23.69,24.95,25.4,,,
11486,SÚPER SERVICIO RÍO BRAVO S.A. DE C.V.,PL/10095/EXP/ES/2015,-98.34766,26.06431,21.59,23.17,,,,
11487,SERVICIOS MERARID S.A. DE C.V.,PL/10096/EXP/ES/2015,-108.0755,25.46009,25.09,26.29,26.49,,,
11488,SERVICIO TECHALUTA S.A. DE C.V.,PL/10097/EXP/ES/2015,-103.5536,20.04685,23.9,26.55,25.45,,,
11489,ESTACIÓN DE SERVICIO GALERIAS S.A. DE C.V.,PL/10098/EXP/ES/2015,-103.4317,20.66939,24.98,26.48,,,,
11490,GRUPO GASDE S.A. DE C.V.,PL/10099/EXP/ES/2015,-105.6243,28.38186,24.29,25.89,25.19,,,
2851,COMBU-EXPRESS S.A. DE C.V.,PL/1010/EXP/ES/2015,-103.414,19.62872,25.94,,27.08,,,
11491,OPERADORA AVIACIÓN S.A. DE C.V.,PL/10100/EXP/ES/2015,-103.4511,20.73067,24.3,25.95,,,,
11492,RIGUERO MACIAS Y SOCIOS S.A. DE C.V.,PL/10101/EXP/ES/2015,-104.881,21.49262,25.29,25.99,,,,
11494,EUGENIO ALVAREZ GARCÍA,PL/10102/EXP/ES/2015,-101.2704,19.98736,23.63,25.46,25.44,,,
11493,CENTRAL SAN AGUSTÍN S.A. DE C.V.,PL/10103/EXP/ES/2015,-103.4635,20.55863,23.99,25.24,25.59,,,
11495,ESTACIÓN DE SERVICIO OMEGA S.A. DE C.V.,PL/10104/EXP/ES/2015,-103.4383,20.57107,22.99,24.99,,,,
11496,LA CANTERA GASO S.A. DE C.V.,PL/10105/EXP/ES/2015,-104.8307,21.49209,23.29,25.99,26.79,,,
11497,ESTACIÓN GUADALUPE S.A. DE C.V.,PL/10106/EXP/ES/2015,-103.4199,20.66318,21.59,24.49,,,,
11498,ESTACIÓN DE SERVICIOS TALA S.A. DE C.V.,PL/10107/EXP/ES/2015,-103.6883,20.70321,22.98,,24.98,,,
11499,COMBUSTIBLE TLAJOMULCO S.A. DE C.V.,PL/10108/EXP/ES/2015,-103.3769,20.52955,21.99,,23.99,,,
11541,CARLOS ARMANDO VALENCIA MONREAL,PL/10109/EXP/ES/2015,-112.1386,30.71979,24.25,25.99,25.99,,,
2921,SERVICIO LIBRAMIENTO LA JOYA S.A. DE C.V.,PL/1011/EXP/ES/2015,-98.3846,20.071,,,,,,
11542,GASOLINAS Y LUBRICANTES ALSEGA S.A. DE C.V.,PL/10110/EXP/ES/2015,-106.4125,31.69885,19.09,21.29,,,,
11543,SÚPER SERVICIO FATIMA S.A. DE C.V.,PL/10111/EXP/ES/2015,-101.0076,25.42936,22.99,,,,,
11544,SERVICIOS ECOLÓGICOS DEL MAYAB S. DE R. L. DE C. V.,PL/10112/EXP/ES/2015,-87.47454,20.2079,25.63,26.63,27.76,,,
11545,"BELLAS ARTES GASOLINERA, SA DE CV",PL/10113/EXP/ES/2015,-115.4907,32.64444,23.99,25.49,,,,
11546,JOSÉ ALBERTO ASIS CALDERÓN,PL/10114/EXP/ES/2015,-101.4487,26.94217,23.99,25.99,,,,
11547,LA PROVIDENCIA COMBUSTIBLES LUBRICANTES Y SERVICIOS S.A. DE C.V.,PL/10115/EXP/ES/2015,-99.09428,19.63255,,,,,,
11548,AUXILIADORA DE COMBUSTIBLES S.A. DE C.V.,PL/10116/EXP/ES/2015,-103.1103,20.3303,24.94,26.94,26.1,,,
11549,AUXILIADORA DE COMBUSTIBLES S.A. DE C.V.,PL/10117/EXP/ES/2015,-103.1947,20.31553,24.98,26.78,25.98,,,
11550,DE LA HOYA 1 S.A. DE C.V.,PL/10118/EXP/ES/2015,-104.0874,24.49989,,,,,,
11551,SERVICIO SOMBRERITO S.A. DE C.V.,PL/10119/EXP/ES/2015,-97.96126,23.26065,24.99,,26.09,,,
2820,ESTACIÓN DE SERVICIO ESTADIO S.A. DE C.V.,PL/1012/EXP/ES/2015,-99.15987,19.41204,23.79,26.39,,Ciudad de Mexico,Cuauhtemoc,Avenida Yucatán No. 155
11552,NOGALES ENERGÉTICOS S.A. DE C.V.,PL/10120/EXP/ES/2015,-110.9468,31.31786,20.79,23.89,,,,
11553,NOGALES ENERGÉTICOS S.A. DE C.V.,PL/10121/EXP/ES/2015,-110.9484,31.30182,,,,,,
11554,"CORPORATIVO EMPRENDEDOR DEL NOROESTE, S.A. DE C.V.",PL/10122/EXP/ES/2015,-117.049,32.5268,24.49,25.99,,,,
11556,"CORPORATIVO EMPRENDEDOR DEL NOROESTE, S.A. DE C.V.",PL/10123/EXP/ES/2015,-116.9809,32.51695,24.49,25.99,,,,
11555,"CORPORATIVO EMPRENDEDOR DEL NOROESTE, S.A. DE C.V.",PL/10124/EXP/ES/2015,-116.8642,32.47332,23.99,24.99,,,,
11557,"CORPORATIVO EMPRENDEDOR DEL NOROESTE, S.A. DE C.V.",PL/10125/EXP/ES/2015,-117.013,32.44472,23.99,25.99,,,,
11558,FRANCISCO RAFAEL ZORRILLA ALANIS,PL/10126/EXP/ES/2015,-96.39247,18.83271,24.03,,25.88,,,
11559,GASOVAZ S.A. DE C.V.,PL/10127/EXP/ES/2015,-103.3373,20.66048,24.88,26.9,25.8,,,
11560,PETROVAZ S.A. DE C.V.,PL/10128/EXP/ES/2015,-103.456,20.68832,23.97,26.19,25.25,,,
11561,PETROVAZ S.A. DE C.V.,PL/10129/EXP/ES/2015,-103.4528,20.69433,,,,,,
3067,SERVICIOS ENERGÉTICOS DE TIZAYUCA S.A. DE C.V.,PL/1013/EXP/ES/2015,-98.97259,19.84018,23.99,25.09,25.28,,,
11562,JUAN ANTONIO CASTRO ROMERO,PL/10130/EXP/ES/2015,-89.54332,20.93913,24.69,25.69,26.69,,,
11514,GRUPO GASOLINERO CARAVI S.A. DE C.V.,PL/10131/EXP/ES/2015,-98.43867,26.02867,21.59,23.17,24.99,,,
11515,RAMIRO ALFREDO GONZÁLEZ RAMÍREZ,PL/10132/EXP/ES/2015,0,0,,,,,,
11516,GRUPO GASOLINERO CARAVI S.A. DE C.V.,PL/10133/EXP/ES/2015,-107.9289,25.47876,25.09,,,,,
11517,INTERAMERICANA DE GAS S.A DE C.V,PL/10134/EXP/ES/2015,0,0,,,,,,
11518,HIDROCARBUROS HIDALGO S.A. DE C.V.,PL/10135/EXP/ES/2015,-98.75043,20.1059,23.59,24.44,,,,
11519,MULTISERVICIOS TAMEHI S.A. DE C.V.,PL/10136/EXP/ES/2015,-101.5698,19.63035,23.99,24.9,25.9,,,
11520,GASOLINA Y DIESEL DE OCCIDENTE S.A. DE C.V.,PL/10137/EXP/ES/2015,-103.3906,20.72808,24.99,26.88,,,,
11521,UNIGAS DEL PAPALOAPAN S.A. DE C.V.,PL/10138/EXP/ES/2015,-96.35363,18.45216,23.77,24.39,24.99,,,
11522,MIGUEL CASTAÑEDA ESPARZA,PL/10139/EXP/ES/2015,-101.9938,22.47896,,,,,,
2756,COMBU-EXPRESS S.A. DE C.V.,PL/1014/EXP/ES/2015,-101.3484,20.68778,23.89,25.69,,,,
11523,GASOLINA Y DIESEL DE OCCIDENTE S.A. DE C.V.,PL/10140/EXP/ES/2015,-103.4536,20.4778,25.49,26.98,,,,
11524,ANA MARÍA VALENZUELA MERCADO,PL/10141/EXP/ES/2015,-100.187,19.79341,24.75,25.5,25.99,,,
11525,JOSÉ LUIS CANTELI FUENTE,PL/10142/EXP/ES/2015,-98.89006,19.47704,23.93,24.95,25.75,,,
11526,GABRIELA ANDREA FARFAN VELAZQUEZ,PL/10143/EXP/ES/2015,-101.6507,19.40072,24.98,26.66,27.41,,,
11527,MARÍA SOCORRO ORTEGA HERNÁNDEZ,PL/10144/EXP/ES/2015,-101.7656,19.49922,,,,,,
11528,MARIBEL AVILA CANO,PL/10145/EXP/ES/2015,-98.7988,20.0343,,,,,,
11529,"BP ESTACIONES Y SERVICIOS ENERGETICOS, S.A. DE C.V.",PL/10146/EXP/ES/2015,-86.876,20.91282,25.95,26.95,27.79,,,
11530,GASOLINERA LA PIEDRA S.A. DE C.V.,PL/10147/EXP/ES/2015,-92.38574,15.29961,25.75,26.25,27.25,,,
11531,GASOLINERA LA PIEDRA S.A. DE C.V.,PL/10148/EXP/ES/2015,-92.24186,15.36755,25.8,26.46,27.28,,,
11532,VARVEL S. A DE C. V.,PL/10149/EXP/ES/2015,-99.57624,19.27095,24.09,25.89,25.99,,,
3089,SERVICIOS ENERGÉTICOS DE ZUMPANGO S.A. DE C.V.,PL/1015/EXP/ES/2015,-100.4206,20.55431,23.19,24.49,,,,
11533,HUMBERTO FLORES JIMÉNEZ,PL/10150/EXP/ES/2015,-100.2723,18.36599,,,,,,
11534,GASOLINAS Y LUBRICANTES ALSEGA S.A. DE C.V.,PL/10151/EXP/ES/2015,-106.4121,31.69925,,,,,,
11535,HUMBERTO FLORES JIMÉNEZ,PL/10152/EXP/ES/2015,-100.2816,18.31678,,,,,,
11536,GASOLINERA NIQUIVIL S.A. DE C.V.,PL/10153/EXP/ES/2015,-92.21568,15.26244,,,,,,
11537,POMPA BOYLAN ASOCIADOS S.A. DE C.V.,PL/10154/EXP/ES/2015,-104.0494,26.5793,22.99,24.49,23.69,,,
11538,"COMBUSTIBLES Y LUBRICANTES GARVA, S. DE R.L. DE C.V.",PL/10155/EXP/ES/2015,-115.4184,32.621,23.29,24.55,25.49,,,
11539,FEDERICO LÓPEZ LÓPEZ,PL/10156/EXP/ES/2015,-110.8879,29.17866,24.99,,,,,
11540,SÚPER SERVICIO CIBRIAN S.A. DE C.V.,PL/10157/EXP/ES/2015,-104.6974,19.22874,,,,,,
11500,JORGE ANTONIO ZARAGOZA MARTINEZ,PL/10158/EXP/ES/2015,-97.32636,20.44931,,,,,,
11501,NACIONAL DE COMBUSTIBLES Y LUBRICANTES S.A. DE C.V.,PL/10159/EXP/ES/2015,-99.12649,19.46518,24.99,26.69,,Ciudad de Mexico,Gustavo A. Madero,Donizetti No. 315 Y Calzada de Los Misterios
2902,"ENERGIA Y SERVICIOS COORDINADOS, S.A. DE C.V.",PL/1016/EXP/ES/2015,-104.6641,23.98523,25.99,26.79,27.69,,,
11502,NACIONAL DE COMBUSTIBLES Y LUBRICANTES S.A. DE C.V.,PL/10160/EXP/ES/2015,-99.16473,19.43035,24.99,26.59,,Ciudad de Mexico,Cuauhtemoc,Rio Lerma No. 71 Esquina Rio Rhin
11503,SERVICO PASO DEL MACHO S.A. DE C.V.,PL/10161/EXP/ES/2015,-96.72746,18.97709,23.49,23.89,25.19,,,
11504,SERVICIO HIPERGAS S.A. DE C.V.,PL/10162/EXP/ES/2015,-102.3777,20.70661,23.25,25.6,24.95,,,
11505,SÚPER GAS DE POTRERO S.A. DE C.V.,PL/10163/EXP/ES/2015,-96.80165,18.8906,23.95,24.35,,,,
11506,OPERADORA RIVERA SACRA S.A. DE C.V.,PL/10164/EXP/ES/2015,-100.4189,20.61093,23.19,25.49,25.99,,,
11507,GASERVICIOS SAN DIEGO S.A. DE C.V.,PL/10165/EXP/ES/2015,-103.4071,20.42978,22.99,24.2,24.2,,,
11508,RICARDO ESQUIVEL CASTAÑEDA,PL/10166/EXP/ES/2015,-97.69262,19.99243,24.6,,26.9,,,
11509,RICARDO ESQUIVEL CASTAÑEDA,PL/10167/EXP/ES/2015,-105.1491,21.87197,24.75,25.85,26.45,,,
11510,LUBRICANTES Y COMBUSTIBLES DE LA COSTA S.A. DE C.V.,PL/10168/EXP/ES/2015,-103.5889,18.52734,,,,,,
11511,SERVICIOS RANCHEZ S.A. DE C.V.,PL/10169/EXP/ES/2015,-107.3782,24.44258,24.99,,25.99,,,
3144,COMBU-EXPRESS S.A. DE C.V.,PL/1017/EXP/ES/2015,-103.6008,19.88241,25.49,,26.64,,,
11512,SERVICIO ROHEL S.A. DE C.V.,PL/10170/EXP/ES/2015,-103.1302,20.39214,,,,,,
11513,GASOLINERIA EL ROSARIO S.A. DE C.V.,PL/10171/EXP/ES/2015,-99.14349,19.91947,24.83,25.39,26.36,,,
11563,GASOLINERA REAL VISTA HERMOSA II S. DE R. L. DE C. V.,PL/10172/EXP/ES/2015,-103.7078,19.25835,24.7,25.96,26.5,,,
11564,HIDROCARBUROS HIDALGUENSES S.A. DE C.V.,PL/10173/EXP/ES/2015,-98.30904,20.03276,,,,,,
11565,GASOLINERA SAN ISIDRO TEPALCATEPEC S.A. DE C.V.,PL/10174/EXP/ES/2015,-102.8849,19.08021,26.0,27.0,27.65,,,
11566,HIDROCARBUROS HIDALGUENSES S.A. DE C.V.,PL/10175/EXP/ES/2015,-98.34344,20.06468,22.97,24.99,25.7,,,
11567,MULTISERVICIOS LOS CIENES S.A. DE C.V.,PL/10176/EXP/ES/2015,-107.0055,28.77414,23.3,25.25,24.25,,,
11568,GASOLINERA JAG S.A. DE C.V.,PL/10177/EXP/ES/2015,-100.2818,25.63519,24.59,26.44,,,,
11588,JUAN CARLOS LOMELIN ALBA,PL/10178/EXP/ES/2015,-101.6805,21.07721,,,,,,
11589,MAC SERVICIOS DEL RÍO BANAMICHI S.A. DE C.V.,PL/10179/EXP/ES/2015,-110.2163,30.01417,,,,,,
2935,INMOBILIARIA IGOVA S.A. DE C.V.,PL/1018/EXP/ES/2015,-100.4231,20.55244,23.19,24.49,,,,
11590,JUAN CARLOS LOMELIN ALBA,PL/10180/EXP/ES/2015,-101.6823,21.07538,,,,,,
11591,ESTACIÓN CHAPULTEPEC S. DE R. L.,PL/10181/EXP/ES/2015,-117.013,32.51657,,,,,,
11592,SERVICIO TRÉBOL S. A.,PL/10182/EXP/ES/2015,-99.20725,18.92212,23.69,24.99,,,,
11569,SERVICIOS MABEL S.A. DE C.V.,PL/10183/EXP/ES/2015,-101.9611,21.33578,25.15,26.5,27.05,,,
11570,GRUPO QUINRA S.A. DE C.V.,PL/10184/EXP/ES/2015,-99.06906,18.87131,24.89,25.79,24.84,,,
11571,EZEQUIEL ANTONIO FLORES GONZÁLEZ,PL/10185/EXP/ES/2015,-99.84806,19.96008,24.29,25.89,,,,
11572,INMOBILIARIA CORSAL S.A. DE C.V.,PL/10186/EXP/ES/2015,-99.12286,19.37325,24.75,,,Ciudad de Mexico,Iztapalapa,Calzada de La Viga No. 1395
11573,GRUPO SEPULVEDA ELIZONDO S.A. DE C.V.,PL/10187/EXP/ES/2015,-100.1297,25.74853,24.55,27.67,26.91,,,
11574,ALEJANNDRO BORJA GONZÁLEZ SUCESIÓN TESTAMENTARIA,PL/10188/EXP/ES/2015,-117.0354,32.52391,,,,,,
11575,LUIS GERARDO HERNÁNDEZ ESPINOSA,PL/10189/EXP/ES/2015,-101.8629,21.02933,,,,,,
2817,SERVICIO TECAMAC SAN CIPRIANO S.A. DE C.V.,PL/1019/EXP/ES/2015,-99.00491,19.65936,23.49,24.89,24.44,,,
11576,ALEJANNDRO BORJA GONZÁLEZ SUCESIÓN TESTAMENTARIA,PL/10190/EXP/ES/2015,-117.0074,32.51474,23.89,,,,,
11577,GASOGRUPO EXCAM S.A. DE C.V.,PL/10191/EXP/ES/2015,-99.37382,18.60345,24.75,25.3,26.4,,,
11578,MANUEL DE JESÚS LÓPEZ CERECER,PL/10192/EXP/ES/2015,-114.997,32.57118,24.49,,25.99,,,
11580,777 MSI DIAMANTE S.A. DE C.V.,PL/10193/EXP/ES/2015,-107.3615,24.80213,22.5,23.8,22.4,,,
11579,SUPER GASOLINERAS DE LA FRONTERA S.A. DE C.V. ,PL/10194/EXP/ES/2015,-100.5525,28.66698,18.99,,,,,
11581,COMBUSTIBLES CARRETEROS CARCO S.A. DE C.V.,PL/10195/EXP/ES/2015,-103.4648,19.6298,25.79,26.6,27.12,,,
11582,TRANSPORTADORA DE COMBUSTIBLES TOPOLOBAMEX S.A. DE C.V.,PL/10196/EXP/ES/2015,-109.04,25.68112,25.95,26.99,,,,
11583,GUFERSA S.A. DE C.V.,PL/10197/EXP/ES/2015,-99.23613,18.96608,24.19,25.19,,,,
11584,GASOLINERA CIVAC S. A.,PL/10198/EXP/ES/2015,-99.1814,18.91184,23.99,24.99,,,,
11585,CORPORATIVO DE MULTISERVICIOS NACIONALES S.A. DE C.V.,PL/10199/EXP/ES/2015,-98.2806,26.09541,,,,,,
3061,SERVICIO GOMASA S.A. DE C.V.,PL/1020/EXP/ES/2015,-99.08173,19.52521,23.79,25.49,25.59,,,
11586,NACIONAL DE COMBUSTIBLES Y LUBRICANTES S.A. DE C.V.,PL/10200/EXP/ES/2015,-99.14319,19.418,24.99,26.69,27.09,Ciudad de Mexico,Cuauhtemoc,Avenida José Tomas Cuellar No. 3
11587,VICENTE RAMÍREZ ACOSTA,PL/10201/EXP/ES/2015,-95.53252,17.78388,24.35,,26.0,,,
11670,GRUPO GASOLINERO Y AUTOMOTRIZ DE TAMAULIPAS S.A. DE C.V.,PL/10202/EXP/ES/2015,-97.87624,22.25641,23.2,24.18,,,,
11671,GASOLINERA RODRÍGUEZ MARRON S.A. DE C.V.,PL/10203/EXP/ES/2015,-96.71351,17.00356,25.39,,27.28,,,
11672,MARÍA LUISA HERANDEZ DEL ANGEL,PL/10204/EXP/ES/2015,-99.1397,23.77268,23.15,24.99,25.44,,,
11673,SCOTTO BOETANI S.A. DE C.V.,PL/10205/EXP/ES/2015,-99.23974,18.93679,24.39,25.29,,,,
11674,INMOBILIARIA CANUTILLO S.A. DE C.V.,PL/10206/EXP/ES/2015,-98.86771,19.26271,23.34,24.8,25.25,,,
11675,JOSÉ IGNACIO BERRONDO AVALOS,PL/10207/EXP/ES/2015,-99.11037,19.42771,23.89,24.85,,Ciudad de Mexico,Venustiano Carranza,Francisco Espejel No. 2
11676,INMOBILIARIA CANUTILLO S.A. DE C.V.,PL/10208/EXP/ES/2015,-98.87506,19.30693,23.85,25.29,,,,
11677,PETRO FUELS APASEO EL ALTO SA DE CV,PL/10209/EXP/ES/2015,-98.44712,21.77706,24.95,,26.99,,,
2969,"LAS MEJORES ESTACIONES, S.A DE C.V",PL/1021/EXP/ES/2015,-98.94063,20.27552,24.69,26.39,25.99,,,
11678,INMOBILIARIA CANUTILLO S.A. DE C.V.,PL/10210/EXP/ES/2015,-98.90075,19.31183,23.85,25.29,,,,
11679,SÚPER SERVICIO DE CUAUHTEMOC Y COLLADO S.A. DE C.V.,PL/10211/EXP/ES/2015,-96.14041,19.17935,,,,,,
11680,INMOBILIARIA CANUTILLO S.A. DE C.V.,PL/10212/EXP/ES/2015,-98.87151,19.31593,23.85,25.29,25.64,,,
11681,AUTOSERVICIO EL COLOMO S.A. DE C.V.,PL/10213/EXP/ES/2015,-104.2377,19.0561,25.25,26.65,26.8,,,
11682,ESTACIÓN DE SERVICIOS PUCTE SPR,PL/10214/EXP/ES/2015,-88.65059,18.24704,24.59,,26.09,,,
11683,SERVICIO 23K S.A. DE C.V.,PL/10215/EXP/ES/2015,-106.1782,28.81046,24.83,26.27,26.68,,,
11684,SERVICIO ISLA S.A. DE C.V.,PL/10216/EXP/ES/2015,-95.76282,18.76779,23.99,24.79,,,,
11685,FABRICACIÓN Y MONTAJES INDUSTRIALES ZAIMER S.A. DE C.V.,PL/10217/EXP/ES/2015,-102.8024,20.81544,25.69,27.09,27.29,,,
11687,SÚPER GAS LAS FUENTES S.A. DE C.V.,PL/10218/EXP/ES/2015,-96.93166,18.90541,24.08,24.59,25.99,,,
11686,GASOLINERA CAÑA BRAVA S.A. DE C.V.,PL/10219/EXP/ES/2015,-88.67669,18.27106,24.59,24.99,26.09,,,
2911,SERVICIOS ENERGÉTICOS HERGOM S.A. DE C.V.,PL/1022/EXP/ES/2015,-99.03618,19.61466,23.49,24.99,24.99,,,
11688,PARADERO STA MARIA  S.A. DE C.V.,PL/10220/EXP/ES/2015,-101.4103,26.89293,25.09,26.99,,,,
11689,SERVICIO LOS CAFETOS DE CORDOBA S.A. DE C.V.,PL/10221/EXP/ES/2015,-96.9424,18.89265,23.79,24.39,25.99,,,
11593,ECV S.A. DE C.V.,PL/10222/EXP/ES/2015,-99.61311,19.33065,23.19,24.79,,,,
11594,"COMBUSTIBLES Y LUBRICANTES GARVA, S. DE R.L. DE C.V.",PL/10223/EXP/ES/2015,-115.1109,32.28942,24.49,25.69,25.79,,,
11595,FRANCISCO SEGOVIA MARTINEZ,PL/10224/EXP/ES/2015,-101.228,19.71857,24.5,25.4,26.5,,,
11596,NUEVO SERVICIO CASTILLO,PL/10225/EXP/ES/2015,-103.05,20.62188,24.99,26.4,26.25,,,
11597,SERVICIO CASTILLO S.A. DE C.V.,PL/10226/EXP/ES/2015,-103.0766,20.61764,24.89,26.59,26.45,,,
11598,JOSÉ LUIS VAZQUEZ JIMÉNEZ,PL/10227/EXP/ES/2015,-99.95439,20.14435,25.6,25.99,27.1,,,
11599,SERVICIO FEMEMA S.A. DE C.V.,PL/10228/EXP/ES/2015,-102.6998,19.18224,26.03,27.03,28.19,,,
11600,COMERCIALIZADORA DE COMBUSTIBLES TAMAULIPECA S.A. DE C.V.,PL/10229/EXP/ES/2015,-99.01044,22.82167,23.99,24.99,25.99,,,
2961,SERVICIO LA MONTAÑESA S.A. DE C.V.,PL/1023/EXP/ES/2015,-99.06361,19.51636,23.99,25.49,25.25,,,
11601,DELIA JASMIN PARKER BALLESTEROS,PL/10230/EXP/ES/2015,-111.0436,29.68858,23.99,24.99,25.58,,,
11602,GASOLINERIA TEMORIS S.A. DE C.V.,PL/10231/EXP/ES/2015,-108.2785,27.28139,26.0,27.5,27.7,,,
11603,SERVICIOS INTEGRALES MARY S.A. DE C.V.,PL/10232/EXP/ES/2015,-107.4007,24.8341,21.99,23.29,22.99,,,
11604,COMERCIAL ONASISS S.A. DE C.V.,PL/10233/EXP/ES/2015,-98.91222,19.55877,24.2,25.45,25.7,,,
11605,"UNION DE GASOLINEROS LAS TORRES, SA DE CV  E12587",PL/10234/EXP/ES/2015,-99.64849,21.9875,24.53,,26.19,,,
11606,GASOLINERA COTIJA S.A. DE C.V.,PL/10235/EXP/ES/2015,-102.6878,19.80561,26.3,27.3,28.2,,,
11607,SERVICIO LAS MATAS S.A. DE C.V.,PL/10236/EXP/ES/2015,-94.52845,18.03348,22.35,23.25,24.17,,,
11608,AUTO SERVICIO SUR DE LA COSTA ALEGRE S.A. DE C.V.,PL/10237/EXP/ES/2015,-104.6268,19.48912,25.6,26.8,26.82,,,
11609,BLANCA ARACELI REYES ZARZOSA,PL/10238/EXP/ES/2015,-101.7179,22.35982,25.19,,26.59,,,
11610,GASOLINERA EL CORTIJO S.A. DE C.V.,PL/10239/EXP/ES/2015,-100.6038,19.63146,25.15,26.73,26.99,,,
3002,SERVICIOS ENERGÉTICOS MEXIQUENSES S.A. DE C.V.,PL/1024/EXP/ES/2015,-99.57431,19.28758,23.69,24.99,25.19,,,
11611,SERVICIO TEOLOCHOLCO S.A. DE C.V.,PL/10240/EXP/ES/2015,-98.19624,19.24956,23.45,24.6,25.88,,,
11612,MULTISERVICIOS COMBUSTIBLES Y LUBRICANTES LA 20 S. A.,PL/10241/EXP/ES/2015,-107.4285,24.77415,22.5,23.59,22.99,,,
11613,GASOLINERA GONZÁLEZ S.A. DE C.V.,PL/10242/EXP/ES/2015,-98.22703,21.34705,24.49,25.3,25.9,,,
11614,SERVICIO Y REFACCIONES ZAMA S.A. DE C.V.,PL/10243/EXP/ES/2015,-101.4334,26.86712,,,,,,
11615,GP GASOLINERA PERINORTE S.A. DE C.V.,PL/10244/EXP/ES/2015,-111.0181,29.05614,23.59,26.0,,,,
11616,SUPERSERVICIO SAETA S.A. DE C.V.,PL/10245/EXP/ES/2015,-98.13691,19.37964,24.29,25.4,25.59,,,
11617,SERVICIOS UNIDOS TINAJAS S.A. DE C.V.,PL/10246/EXP/ES/2015,-96.46239,18.76022,,,,,,
11618,"PETROMAX, S.A. DE C.V.",PL/10247/EXP/ES/2015,-99.99425,25.58308,23.99,27.89,,,,
11619,GASOLINERIA DIVISIÓN ZAPATA S.A. DE C.V.,PL/10248/EXP/ES/2015,-99.15625,19.3671,,,,,,
11620,"GASOLINERAS MGM, S.A. DE C.V.",PL/10249/EXP/ES/2015,-102.0057,19.91468,25.22,,27.49,,,
3103,PETROLÍFEROS LA TERRITORIAL S. DE R. L. DE C. V.,PL/1025/EXP/ES/2015,-111.1404,30.5556,26.29,27.99,27.19,,,
11621,SERVICIOS GASOLINEROS DE MÉXICO S.A. DE C.V.,PL/10250/EXP/ES/2015,-100.178,25.74551,25.39,27.89,,,,
11622,SERVICIOS SIMPA S.A. DE C.V.,PL/10251/EXP/ES/2015,-99.18098,19.6689,22.49,23.99,23.69,,,
11623,SÚPER SERVICIO EXPO S.A. DE C.V.,PL/10252/EXP/ES/2015,-100.2431,25.67988,,,,,,
11624,RICARDO IBARRA BAUMANN,PL/10253/EXP/ES/2015,-92.94875,15.86305,,,,,,
11625,GASOLINERA BUSTOS DE LA MORA S.A. DE C.V.,PL/10254/EXP/ES/2015,-102.6509,20.8661,24.49,25.95,25.93,,,
11626,ABASTECEDORA DE COMBUSTIBLES S.A. DE C.V.,PL/10255/EXP/ES/2015,-104.9031,27.1412,24.75,26.0,26.55,,,
11627,ENERGÉTICOS DEL PUERTO RAYON,PL/10256/EXP/ES/2015,-99.62851,21.84968,24.44,25.26,25.93,,,
11628,JOSÉ JAIME LÓPEZ MERLOS,PL/10257/EXP/ES/2015,-100.4649,19.71108,24.85,25.99,26.8,,,
11629,GASADER,PL/10258/EXP/ES/2015,-96.98752,20.13182,24.4,25.5,25.9,,,
11630,SOCIEDAD COOPERATIVA AGROPECUARIA REGIONAL ANTORCHA CAMPESINA S. C. L.,PL/10259/EXP/ES/2015,-98.31101,18.12137,25.2,26.4,27.45,,,
2824,ESTACIÓN DE SERVICIO LEÓN S. DE R. L. DE C. V.,PL/1026/EXP/ES/2015,-101.598,21.10939,25.49,27.99,26.49,,,
11631,JUAN MANUEL CELIS AGUIRRE,PL/10260/EXP/ES/2015,-98.55079,17.55603,25.5,26.45,27.65,,,
11632,BRASIL ALBERTO ACOSTA PEÑA,PL/10261/EXP/ES/2015,-103.3812,25.49578,24.6,25.89,,,,
11633,AUTO SERVICIO M5 S.A. DE C.V.,PL/10262/EXP/ES/2015,-115.2144,32.55232,23.0,24.05,24.85,,,
11634,ISAURA MECALCO ESCALONA,PL/10263/EXP/ES/2015,-94.79258,18.14322,24.25,,0.1,,,
11635,SERVICIO LOZANO S.A. DE C.V.,PL/10264/EXP/ES/2015,-101.4419,26.85893,24.99,26.98,26.99,,,
11636,SERVICIO LOZANO S.A. DE C.V.,PL/10265/EXP/ES/2015,-101.4388,26.93564,23.99,26.59,,,,
11637,GRUPO HERCO S.A. DE C.V.,PL/10266/EXP/ES/2015,-93.31953,18.2759,,,,,,
11638,GRUPO GASOLINERO TITAN S.A. DE C.V.,PL/10267/EXP/ES/2015,-98.97723,19.68142,24.19,24.99,25.55,,,
11639,GERARDO DELGADO VALENCIA,PL/10268/EXP/ES/2015,-102.357,19.09607,25.98,26.98,28.13,,,
11640,ENRIQUE ENCISO DIAZ,PL/10269/EXP/ES/2015,-103.191,20.3532,24.75,26.18,25.85,,,
2923,ESTACIÓN DE SERVICIO LEÓN S. DE R. L. DE C. V.,PL/1027/EXP/ES/2015,-101.5928,21.10928,25.49,27.99,,,,
11641,J INES VILLEGAS GARCÍA,PL/10270/EXP/ES/2015,-100.7005,21.28598,,,,,,
11642,ESTACIÓN DE SERVICIO RIVA PALACIO S.A. DE C.V.,PL/10271/EXP/ES/2015,-100.6639,18.36516,25.2,26.35,26.85,,,
11643,RAQUEL MORALES RICO,PL/10272/EXP/ES/2015,-100.4338,19.31723,24.7,25.6,26.1,,,
11644,ROMA REFINADOS S.A. DE C.V.,PL/10273/EXP/ES/2015,-100.2011,25.76682,,,,,,
11645,ELSA ILIANA RAMÍREZ ELIZONDO,PL/10274/EXP/ES/2015,0,0,,,,,,
11646,ESTACIÓN 10 SUR S.A. DE C.V.,PL/10275/EXP/ES/2015,-98.9635,19.31187,23.69,25.29,25.89,,,
11647,SÚPER SERVICIO COINTZIO S.A. DE C.V.,PL/10276/EXP/ES/2015,-101.2756,19.69301,24.09,25.19,26.09,,,
11648,GRUPO CRISAN S.A. DE C.V.,PL/10277/EXP/ES/2015,-100.6886,18.33427,25.55,26.95,26.99,,,
11649,DISTRIBUIDORA SAN CHARBEL S.A. DE C.V.,PL/10278/EXP/ES/2015,-98.20482,19.07769,22.95,25.91,24.85,,,
11650,CORPORACIÓN GASOLINERA MILLENIUM S.A. DE C.V.,PL/10279/EXP/ES/2015,-99.18336,19.65054,23.99,24.99,24.99,,,
3003,LAS MEJORES ESTACIONES S.A DE C.V,PL/1028/EXP/ES/2015,-98.9445,20.28471,24.69,26.39,,,,
11651,CONSORCIO GASOLINERO ARPABRE S.A. DE C.V.,PL/10280/EXP/ES/2015,-98.716,20.0838,23.79,24.64,26.94,,,
11653,"ESTACION DE SERVICIOS EL CAPITAN, SA DE CV ",PL/10281/EXP/ES/2015,-112.8552,31.85547,21.99,24.69,25.69,,,
11654,LEONILA CALDERÓN VARGAS,PL/10282/EXP/ES/2015,-98.55419,19.78862,24.79,,26.79,,,
11655,SERVICIO PENSIÓN S.A. DE C.V.,PL/10283/EXP/ES/2015,-116.5916,31.78679,23.39,24.97,,,,
11656,SERVICIO CIUDAD DEPORTIVA S.A. DE C.V.,PL/10284/EXP/ES/2015,-99.09052,19.40869,23.99,25.99,,Ciudad de Mexico,Venustiano Carranza,Avenida Rio de La Piedad No. 156 Y Calle 47
11652,LUIS EDUARDO SORIA GONZÁLEZ,PL/10285/EXP/ES/2015,-101.5083,19.65816,24.59,25.59,27.09,,,
11657,SERVICIO IMPERIAL DE MÉXICO S.A. DE C.V.,PL/10286/EXP/ES/2015,-91.84255,18.64382,23.19,24.19,24.99,,,
11658,GAS BRA S.A. DE C.V.,PL/10287/EXP/ES/2015,-99.28179,18.69185,24.89,25.49,26.39,,,
11659,ESTACIÓN DE SERVICIOS GEMMA LOS ANGELES S.A. DE C.V.,PL/10288/EXP/ES/2015,-98.2444,19.07023,23.74,24.99,24.79,,,
11660,GASOLINERA C V S DE PUEBLA S.A. DE C.V.,PL/10289/EXP/ES/2015,-98.17649,19.0277,23.89,24.99,,,,
3005,"SKYGAS, S. DE R.L. DE C.V.",PL/1029/EXP/ES/2015,-115.4442,32.66677,23.99,24.99,,,,
11340,GRUPO GASOLINERO ROMA S.A. DE C.V.,PL/10290/EXP/ES/2015,-93.11903,17.51852,23.39,24.09,25.09,,,
11661,MARÍA SILVIA URETA SÁNCHEZ,PL/10291/EXP/ES/2015,-116.9178,32.49979,23.55,25.25,,,,
11662,JOHANNA ISAURA ARELLANO URETA,PL/10292/EXP/ES/2015,-116.8925,32.49897,23.45,24.99,,,,
11663,SERVICIO CLAVERIA S.A. DE C.V.,PL/10293/EXP/ES/2015,-99.18691,19.46546,23.99,25.69,,Ciudad de Mexico,Azcapotzalco,Avenida Claveria No. 27
11664,TRACTO CENTER S.A. DE C.V.,PL/10294/EXP/ES/2015,-97.89313,22.39402,,24.04,24.99,,,
11665,SILVIA ARELLANO URETA,PL/10295/EXP/ES/2015,-116.9688,32.47706,,,,,,
11666,TRACTO CENTER S.A. DE C.V.,PL/10296/EXP/ES/2015,-97.87406,22.26757,,24.19,,,,
11667,TRACTO CENTER S.A. DE C.V.,PL/10297/EXP/ES/2015,-97.85053,22.26255,,24.19,,,,
11668,TRACTO CENTER S.A. DE C.V.,PL/10298/EXP/ES/2015,-97.8862,22.35305,,24.24,25.29,,,
11669,ESTACIÓN DE SERVICIO EL CRUCERO S.A. DE C.V.,PL/10299/EXP/ES/2015,-101.4278,26.91517,,,,,,
2877,"PETROLIFEROS LA TERRITORIAL, S. DE R.L. DE C.V.",PL/1030/EXP/ES/2015,-115.1031,32.2855,24.59,26.19,25.99,,,
11723,XOCHIGAS S.A. DE C.V.,PL/10300/EXP/ES/2015,-99.22489,18.7755,23.99,24.79,25.99,,,
11715,RAYMUNDO NAVARRO GODINEZ,PL/10301/EXP/ES/2015,-100.9933,20.63168,,,,,,
11716,SERVICIO VERONA S.A. DE C.V. ,PL/10302/EXP/ES/2015,-101.1724,19.74854,23.49,24.49,23.99,,,
11717,SERVICIOS HERMANOS MEDINA LÓPEZ S.A. DE C.V.,PL/10303/EXP/ES/2015,-100.6174,19.54231,,,,,,
11718,YUMKA S.A. DE C.V.,PL/10304/EXP/ES/2015,-99.14959,19.4095,23.81,25.09,25.48,Ciudad de Mexico,Cuauhtemoc,Dr. José María Vertiz No. 419
11719,VÍCTOR HUGO REYNOSO MADRIGAL,PL/10305/EXP/ES/2015,-103.8476,20.68116,24.25,25.45,24.98,,,
11720,SERVICIO LAS CHIQUILLAS S.A. DE C.V.,PL/10306/EXP/ES/2015,-104.5396,20.32318,25.35,27.0,26.7,,,
11722,AUTO SERVICIO MALECON S.A. DE C.V.,PL/10307/EXP/ES/2015,-104.3035,19.05011,25.2,26.45,26.8,,,
11724,AUTOSERVICIO DEL VALLE DE ZINACANTEPEC S.A. DE C.V.,PL/10308/EXP/ES/2015,-99.72504,19.29441,23.69,24.99,25.99,,,
11725,INMOBILIARIA SAMICH S.A. DE C.V.,PL/10309/EXP/ES/2015,-102.2804,19.98726,24.85,25.85,,,,
3031,"EST. DE SERV. PUERTA DE MEXICO, S. DE R.L.DE C.V.",PL/1031/EXP/ES/2015,-117.0607,32.34875,22.99,,25.99,,,
11726,INMOBILIARIA SAMICH S.A. DE C.V.,PL/10310/EXP/ES/2015,-102.7747,20.31862,24.88,26.49,26.18,,,
11728,ESTACIÓN DE SERVICIOS GOMCO S.A. DE C.V.,PL/10311/EXP/ES/2015,-103.4429,20.47165,22.99,24.7,23.99,,,
11729,INMOBILIARIA SAMICH S.A. DE C.V.,PL/10312/EXP/ES/2015,-102.5572,20.29198,23.89,25.84,25.25,,,
11731,INMOBILIARIA SAMICH S.A. DE C.V.,PL/10313/EXP/ES/2015,-102.2845,19.99635,24.85,25.85,26.7,,,
11733,SERVICIO MAKANA S.A. DE C.V.,PL/10314/EXP/ES/2015,-98.21935,19.09069,22.68,23.74,23.9,,,
11735,SOCIEDAD DE PRODUCCIÓN RURAL FELIPE ANGELES S. DE P. R. DE R. L.,PL/10315/EXP/ES/2015,-102.7942,22.54719,25.39,26.65,26.81,,,
11736,IRMA YOLANDA SOLIS BARRERA,PL/10316/EXP/ES/2015,-90.03136,21.16336,25.11,,,,,
11739,SERVICIO CINTURON DE ORION S.A. DE C.V.,PL/10317/EXP/ES/2015,-98.93418,19.31583,23.49,24.29,24.69,,,
11741,INMOBILIARIA SAMICH S.A. DE C.V.,PL/10318/EXP/ES/2015,-102.2966,19.97154,25.47,26.37,26.97,,,
11742,SERVICIO HARRIER S.A. DE C.V.,PL/10319/EXP/ES/2015,-99.00138,19.39114,23.39,,24.99,,,
2790,PETROLÍFEROS LA TERRITORIAL S. DE R. L. DE C. V.,PL/1032/EXP/ES/2015,-109.7399,27.33509,25.99,27.59,27.29,,,
11743,LAS MEJORES ESTACIONES S.A DE C.V,PL/10320/EXP/ES/2015,-99.59688,20.23571,24.29,26.49,25.99,,,
11746,SERVICIOS DEL REAL DEL ALAMITO S.A. DE C.V.,PL/10321/EXP/ES/2015,-110.8499,29.17812,23.99,26.39,26.39,,,
11745,INMOBILIARIA SAMICH S.A. DE C.V.,PL/10322/EXP/ES/2015,-102.6975,19.98512,25.62,26.89,27.5,,,
11747,VFN COMBUSTIBLES S.A.P.I. DE C.V. ,PL/10323/EXP/ES/2015,-96.19369,19.08172,,,,,,
11748,INMOBILIARIA CHALCA HOTELERA S.A. DE C.V.,PL/10324/EXP/ES/2015,-98.9801,19.38935,24.19,26.15,25.49,,,
11750,SERVICIO PLAZA CUERNAVACA S.A. DE C.V.,PL/10325/EXP/ES/2015,-99.2305,18.93292,23.69,24.99,,,,
11751,CRISTOBAL VAZQUEZ GARCÍA,PL/10326/EXP/ES/2015,-98.3275,19.9341,,,,,,
11752,SERVICIO EL KENO S.A. DE C.V.,PL/10327/EXP/ES/2015,-110.9932,29.10189,,,,,,
11753,SERVICIO ACUEDUCTO MORELIA S.A. DE C.V.,PL/10328/EXP/ES/2015,-101.1652,19.69583,24.94,25.89,,,,
11754,"GASOLINERA REFORMA, SA DE CV",PL/10329/EXP/ES/2015,-110.1743,23.36704,25.99,26.99,27.19,,,
3063,TURISMO CONTRERAS S.A. DE C.V.,PL/1033/EXP/ES/2015,-100.77,20.30581,24.59,25.69,26.19,,,
11756,"ESTACION EL NARANJO, SA DE CV",PL/10330/EXP/ES/2015,-113.3622,27.59985,25.99,27.49,27.59,,,
11755,"GASOLINERA REFORMA, SA DE CV",PL/10331/EXP/ES/2015,-110.2835,24.14182,24.99,26.99,27.19,,,
11758,"ESTACION DE SERVICIOS EL CAPITAN, SA DE CV ",PL/10332/EXP/ES/2015,-114.8504,31.02766,24.99,26.49,25.99,,,
11757,"LUIS ALVAREZ E HIJOS, S.A. DE C.V.",PL/10333/EXP/ES/2015,-115.4599,32.6611,23.49,25.59,,,,
11759,MARÍA DEL CARMEN QUINTERO BAUTISTA,PL/10334/EXP/ES/2015,-98.4993,21.0607,24.55,25.4,26.7,,,
11714,COMERCIALIZADORA DE COMBUSTIBLES TAMAULIPECA S.A. DE C.V.,PL/10335/EXP/ES/2015,-99.33065,22.83949,24.65,,26.29,,,
11721,EMPRESA CREATIVA S.A. DE C.V.,PL/10336/EXP/ES/2015,-98.42831,19.58624,,,,,,
11727,HÉCTOR EDUARDO CASTILLO GILES,PL/10337/EXP/ES/2015,-99.97931,17.77834,,,,,,
11730,MULTISERVICIO SAR S.A. DE C.V.,PL/10338/EXP/ES/2015,-102.3165,19.57771,25.46,26.36,27.14,,,
11732,LUCRECIA MONREAL LIZARRAGA,PL/10339/EXP/ES/2015,-112.151,30.72304,24.25,25.99,25.99,,,
3159,SERVICIO ARRECIFE S.A. DE C.V.,PL/1034/EXP/ES/2015,-86.87454,21.15571,25.93,26.93,,,,
11734,SERVICIO CIUDAD DEL SOL S.A. DE C.V.,PL/10340/EXP/ES/2015,-102.0263,20.36349,24.89,25.61,26.58,,,
11737,COMBUSTIBLES BENTAN S.A. DE C.V.,PL/10341/EXP/ES/2015,-98.78149,20.11637,23.39,24.49,25.69,,,
11738,SERVICIO AGUIRRE CASTELLANOS S.A. DE C.V.,PL/10342/EXP/ES/2015,-103.1901,20.29818,24.7,25.9,25.4,,,
11740,GASOLINERA 8 BOULEVARD S.A. DE C.V.,PL/10343/EXP/ES/2015,-99.14408,23.7284,25.39,26.1,,,,
11744,LUIS CARLOS ESTRADA MENDOZA,PL/10344/EXP/ES/2015,-100.3939,25.76801,23.39,27.89,26.99,,,
11749,SERVICIO LOS CAFETOS S.A. DE C.V.,PL/10345/EXP/ES/2015,-96.96449,18.887,24.49,25.39,26.19,,,
11709,SERVICIO EL PRIETO S. A.,PL/10346/EXP/ES/2015,-99.21295,19.46299,23.99,26.49,,Ciudad de Mexico,Miguel Hidalgo,San Bartolo Naucalpan No. 377
11710,SERVICIO MERIDA 2000 S.A. DE C.V.,PL/10347/EXP/ES/2015,-89.65294,21.01188,24.73,25.68,,,,
11711,COMBUSTIBLES TLAJOMULCO S.A. DE C.V.,PL/10348/EXP/ES/2015,-103.5175,20.45418,23.99,24.99,,,,
11712,"ENERKOM CONSULTORIA EN ADMINISTRACION, S.A. DE C.V.",PL/10349/EXP/ES/2015,-89.57735,21.0296,24.79,25.69,26.89,,,
2777,SERVICIO MACARMEX S. A.,PL/1035/EXP/ES/2015,-99.10468,19.44016,23.79,26.49,,,,
11713,MÓNICA OCAMPO MONTES,PL/10350/EXP/ES/2015,-99.74384,21.0256,24.65,,26.8,,,
11760,SERVICIO LLANO GRANDE S.A. DE C.V.,PL/10351/EXP/ES/2015,-99.77074,18.8264,25.59,25.99,26.98,,,
11761,SERVICIO LA CALI S.A. DE C.V.,PL/10352/EXP/ES/2015,-116.0287,30.49411,,26.47,26.07,,,
11762,JOSÉ PÉREZ GONZÁLEZ,PL/10353/EXP/ES/2015,-100.1353,27.23665,24.05,25.55,25.55,,,
11763,ADMINISTRADORA DEL MERCADO DE ABASTOS ESTRELLA S.A. DE C.V.,PL/10354/EXP/ES/2015,-100.2911,25.71138,23.99,26.29,25.99,,,
11764,SERVICIO LA CALI S.A. DE C.V.,PL/10355/EXP/ES/2015,-115.9266,30.51044,,26.87,26.07,,,
11765,"GASOLINERA REFORMA, SA DE CV",PL/10356/EXP/ES/2015,-110.3024,24.15538,24.99,26.99,,,,
11766,"GASOLINERA REFORMA, SA DE CV",PL/10357/EXP/ES/2015,-110.3391,24.13648,24.99,26.99,27.19,,,
11767,"GASOLINERA REFORMA, SA DE CV",PL/10358/EXP/ES/2015,-110.311,24.12287,24.69,26.99,27.19,,,
11768,SERVICIO POGAS S.A. DE C.V.,PL/10359/EXP/ES/2015,-115.9709,30.65495,,26.87,26.07,,,
3078,"LAS MEJORES ESTACIONES, S.A DE C.V",PL/1036/EXP/ES/2015,-100.7899,21.0228,24.89,26.99,26.29,,,
11769,SERVICIO POGAS S.A. DE C.V.,PL/10360/EXP/ES/2015,-115.9143,30.4709,,26.87,26.07,,,
11770,SERVICIOS OSNAR S.A. DE C.V.,PL/10361/EXP/ES/2015,-104.9125,21.51578,25.99,26.49,26.99,,,
11771,COMBUSTIBLES EL AMATE S.A. DE C.V.,PL/10362/EXP/ES/2015,-96.38426,18.53889,24.39,24.88,26.2,,,
11772,ROCIO DEL CARMEN GONZÁLEZ SÁNCHEZ,PL/10363/EXP/ES/2015,-98.99115,19.36711,24.55,26.15,,,,
11773,ENRIQUE MATA VARGAS,PL/10364/EXP/ES/2015,-99.38759,19.07047,24.09,24.69,25.99,,,
11774,GRUPO GASOLINERO ESSA S.A. DE C.V.,PL/10365/EXP/ES/2015,-96.35599,18.44983,23.76,24.39,25.39,,,
11775,"ESTACION PIRU, S.A. DE C.V.",PL/10366/EXP/ES/2015,-110.9447,29.02337,25.69,26.99,,,,
11776,SERVICIOS INTERNACIONALES VICAM S.A. DE C.V.,PL/10367/EXP/ES/2015,-110.2962,27.64159,25.4,25.99,26.99,,,
11777,SERVICIO PANORAMA S.A. DE C.V.,PL/10368/EXP/ES/2015,-100.3788,20.57917,23.3,24.3,25.3,,,
11778,PAULINO VAZQUEZ MORAN,PL/10369/EXP/ES/2015,-99.77383,20.70141,24.55,25.5,26.17,,,
2865,LAS MEJORES ESTACIONES S.A DE C.V,PL/1037/EXP/ES/2015,-99.66228,20.37431,23.99,26.59,26.49,,,
11779,MIGRAG GRUPO CONSTUCTOR S.A. DE C.V.,PL/10370/EXP/ES/2015,-110.966,29.11046,24.99,,,,,
11780,ALBINO ESPINOZA PÉREZ,PL/10371/EXP/ES/2015,-101.6847,19.8224,25.35,26.25,26.6,,,
3071,LAS MEJORES ESTACIONES S.A DE C.V,PL/1038/EXP/ES/2015,-99.64865,20.36569,23.99,26.59,,,,
3075,"LAS MEJORES ESTACIONES, S.A DE C.V",PL/1039/EXP/ES/2015,-100.7626,20.91522,24.79,26.99,26.29,,,
2792,"LAS MEJORES ESTACIONES, S.A DE C.V",PL/1040/EXP/ES/2015,-100.7559,20.90148,23.69,26.99,26.19,,,
3080,"LAS MEJORES ESTACIONES, S.A DE C.V",PL/1041/EXP/ES/2015,-99.01663,20.2833,24.69,,25.99,,,
2781,GASOLINERAS DEL CENTRO S.A. DE C.V.,PL/1042/EXP/ES/2015,-100.9445,21.15487,24.79,26.17,26.17,,,
2941,LAS MEJORES ESTACIONES S.A DE C.V,PL/1043/EXP/ES/2015,-98.96083,20.28027,24.39,26.39,25.99,,,
2849,LAS MEJORES ESTACIONES S.A DE C.V,PL/1044/EXP/ES/2015,-98.94299,20.26111,24.39,26.39,,,,
3069,LA UNICA GASOLINERA SANTAMARIA S.A. DE C.V.,PL/1045/EXP/ES/2015,-100.6693,18.35599,25.25,26.4,26.9,,,
2836,"ENERGIA Y SERVICIOS COORDINADOS, S.A. DE C.V.",PL/1046/EXP/ES/2015,-104.6626,23.99919,25.69,26.39,,,,
3070,COMBUSTIBLES Y LUBRICANTES OJUELOS S.A. DE C.V.,PL/1047/EXP/ES/2015,-101.473,21.63549,25.19,26.19,26.29,,,
2955,SERVICIOS GASOLINEROS DE MÉXICO S.A. DE C.V.,PL/1048/EXP/ES/2015,-100.8391,20.55005,24.99,26.99,,,,
2983,GASOLINERAS DEL CENTRO S.A. DE C.V.,PL/1049/EXP/ES/2015,-101.6406,21.10643,,,,,,
2809,MEGA GASOLINERAS S.A. DE C.V.,PL/1050/EXP/ES/2015,-100.822,20.55594,24.99,27.19,26.89,,,
2880,SERVICIO TEPOTZOTLÁN S.A. DE C.V.,PL/1051/EXP/ES/2015,-99.20262,19.713,24.59,25.99,26.29,,,
3131,SERVICIO ECLIPSE S.A. DE C.V.,PL/1052/EXP/ES/2015,-99.24584,19.37978,25.49,,,Ciudad de Mexico,Alvaro Obregon,Avenida Vasco de Quiroga No. 1845
3083,SÚPER SERVICIO DIAMANTE S.A. DE C.V.,PL/1053/EXP/ES/2015,-99.06403,19.33334,24.29,25.29,25.89,Ciudad de Mexico,Iztapalapa,Tolentino No. 10
2931,SERVICIO MONTE VERDE S.A. DE C.V.,PL/1054/EXP/ES/2015,-99.20256,19.33342,25.49,26.99,,Ciudad de Mexico,Alvaro Obregon,Cda. de La Canoa No. 18
12027,PETROMAX S.A. DE C.V.,PL/10546/EXP/ES/2015,-103.4001,25.5072,25.99,26.99,27.79,,,
12030,PETROMAX S.A. DE C.V.,PL/10547/EXP/ES/2015,-103.4446,25.55189,25.99,26.99,27.79,,,
12029,PETROMAX S.A. DE C.V.,PL/10548/EXP/ES/2015,-103.5024,20.72431,24.99,26.99,25.69,,,
12028,PETROMAX S.A. DE C.V.,PL/10549/EXP/ES/2015,-106.0337,28.62065,24.79,26.99,26.79,,,
3112,SERVICIO TRES MIL S.A. DE C.V.,PL/1055/EXP/ES/2015,-99.26801,19.40136,25.49,,,,,
12032,RYM DE TIJUANA S.A. DE C.V.,PL/10550/EXP/ES/2015,-116.8263,32.45631,23.5,24.9,25.0,,,
12033,GASOLINERIA CIMARRON S.A. DE C.V.,PL/10551/EXP/ES/2015,-86.82359,21.17413,25.93,26.93,,,,
12034,SERVICIO AGUA VERDE S.A. DE C.V.,PL/10552/EXP/ES/2015,-87.22917,20.50601,25.93,26.93,27.73,,,
12035,SERVICIO CBE S.A. DE C.V.,PL/10553/EXP/ES/2015,-87.0773,20.63518,25.89,26.89,,,,
12036,SERVICIOS MARITIMOS TURQUESA S.A. DE C.V.,PL/10554/EXP/ES/2015,-86.88158,21.14639,25.88,26.93,,,,
12037,CENTRO DE SERVICIO AUTOMOVILISTICO S.A. DE C.V.,PL/10555/EXP/ES/2015,-98.78632,20.05576,23.99,24.99,25.79,,,
12039,SERVICIO ANCIRA GARZA S.A. DE C.V.,PL/10556/EXP/ES/2015,-99.51799,27.46025,20.99,22.99,26.29,,,
12040,SERVICIO AG LAS CAMPANAS S.A. DE C.V.,PL/10557/EXP/ES/2015,-99.53538,27.41959,20.99,22.99,26.29,,,
12053,SERVICIO MAELKA S.A. DE C.V.,PL/10558/EXP/ES/2015,-97.43035,16.00425,25.99,26.99,27.35,,,
12055,GASOLINERA ARCE S.A. DE C.V.,PL/10559/EXP/ES/2015,-99.14165,23.75601,24.99,25.89,26.19,,,
2970,GASOLINERÍA TOLUCA S.A. DE C.V.,PL/1056/EXP/ES/2015,-99.59152,19.34932,23.99,25.49,25.99,,,
12057,ESTACIÓN PIRU S.A. DE C.V.,PL/10560/EXP/ES/2015,-116.9411,32.54374,23.49,25.49,,,,
12086,SERVICIO CHONTALPA S.A. DE C.V.,PL/10561/EXP/ES/2015,-93.36706,18.02152,23.69,24.89,25.29,,,
12170,SERVICIOS Y LUBRICANTES FORGAS S.A. DE C.V.,PL/10562/EXP/ES/2015,-109.9429,27.49579,25.49,26.99,,,,
12158,SERVICIO LAMAS S.A. DE C.V.,PL/10563/EXP/ES/2015,-103.8827,22.63321,25.0,25.7,26.5,,,
12182,EZEQUIEL MONTOYA RAMÍREZ,PL/10564/EXP/ES/2015,-107.8489,28.35259,24.8,,26.32,,,
12240,HIDROSINA PLUS S. A. P. I. DE C. V.,PL/10565/EXP/ES/2015,-96.92265,18.88292,24.09,24.69,,,,
12264,ADMINISTRACIONES SHIVA S.A. DE C.V.,PL/10566/EXP/ES/2015,-99.20892,18.77841,23.79,24.89,25.89,,,
12265,"BELLAS ARTES GASOLINERA, SA DE CV",PL/10567/EXP/ES/2015,-115.4903,32.66188,23.8,25.4,25.8,,,
12338,JAVIER CANTU BARRAGAN,PL/10568/EXP/ES/2015,-98.28443,26.06438,21.67,23.18,24.98,,,
12311,JOSÉ ALBERTO ASIS CALDERÓN,PL/10569/EXP/ES/2015,-101.4462,26.92364,22.99,25.99,,,,
2888,MEGA GASOLINERAS S.A. DE C.V.,PL/1057/EXP/ES/2015,-101.7082,21.11805,24.99,27.19,,,,
12307,RS COMBUSTIBLES S.A. DE C.V.,PL/10570/EXP/ES/2015,-101.4341,26.93134,25.39,26.98,26.99,,,
12312,GASOLINERA FOY IDOLO DOS S.A. DE C.V.,PL/10571/EXP/ES/2015,-97.65631,20.88371,24.29,25.65,25.69,,,
12313,GASOLINERA FOY CHICONTEPEC S.A. DE C.V.,PL/10572/EXP/ES/2015,-98.18831,20.96519,25.75,26.55,26.95,,,
12315,GASOLINERA MARINA FOY TAMPAMACHOCO S.A. DE C.V.,PL/10573/EXP/ES/2015,-97.32716,20.96499,,,,,,
12317,AUTO SERVICIO HERNÁNDEZ S.A. DE C.V.,PL/10574/EXP/ES/2015,-97.49202,25.84551,19.79,21.5,,,,
12362,URZUGAS S.A. DE C.V.,PL/10575/EXP/ES/2015,-98.06038,19.85858,24.75,25.85,26.75,,,
12396,"BELLAS ARTES GASOLINERA, SA DE CV",PL/10576/EXP/ES/2015,-115.3837,32.64263,23.99,25.49,,,,
12404,ESTACIÓN DE SERVICIO DE SISAL S.A. DE C.V.,PL/10577/EXP/ES/2015,-90.40168,20.84916,25.49,,,,,
12410,"ESTACION DE SERVICIOS EL CAPITAN, SA DE CV ",PL/10578/EXP/ES/2015,-115.4435,32.64422,23.99,25.49,,,,
12411,ESTACIÓN DE SERVICIO TRES PUENTES S.A. DE C.V.,PL/10579/EXP/ES/2015,-101.2135,19.70321,23.2,24.49,24.49,,,
3156,SERVICIO TULTITLÁN EXPRESS S.A. DE C.V.,PL/1058/EXP/ES/2015,-99.14702,19.62669,24.29,26.49,25.99,,,
12486,EDUARDO PÉREZ MORFIN,PL/10580/EXP/ES/2015,-99.55219,19.3809,24.25,25.5,25.88,,,
12538,SERVICIO ROD-GAR S.A. DE C.V.,PL/10581/EXP/ES/2015,-98.42496,18.04283,,,,,,
12539,LUNA GAS S.A. DE C.V.,PL/10582/EXP/ES/2015,-99.16119,19.67424,23.79,25.49,24.99,,,
12540,ECOGASOLINE S.A. DE C.V.,PL/10583/EXP/ES/2015,-98.42419,18.89498,23.59,24.89,,,,
12541,LUNA GAS S.A. DE C.V.,PL/10584/EXP/ES/2015,-99.18425,19.67294,24.09,25.99,24.99,,,
12542,ESTACIÓN BICENTENARIO S. DE R. L. DE C. V.,PL/10585/EXP/ES/2015,-98.21593,19.03203,23.89,24.89,,,,
12544,Z GAS COMPANY S.A. DE C.V.,PL/10586/EXP/ES/2015,-98.19019,19.07515,23.62,24.69,,,,
12546,"COMBU-EXPRESS, S.A. DE C.V.",PL/10587/EXP/ES/2015,-104.3575,19.78726,26.2,27.2,27.1,,,
12547,GASOLINERA CAMPECHE S.A. DE C.V.,PL/10588/EXP/ES/2015,-90.53872,19.84028,24.99,25.99,26.39,,,
12548,PLAZA SANTAMARÍA FUNDIDORA S.A. DE C.V.,PL/10589/EXP/ES/2015,-98.19215,19.06721,23.5,24.59,24.99,,,
3056,SERVICIO ADEME S.A. DE C.V.,PL/1059/EXP/ES/2015,-99.08414,19.46504,24.89,26.69,,Ciudad de Mexico,Gustavo A. Madero,Avenida 510 No. 340
12549,GASOLINERA OCORO S.A. DE C.V.,PL/10590/EXP/ES/2015,-108.4552,25.59454,,,,,,
12550,SERVICIO MELENDEZ S.A. DE C.V.,PL/10591/EXP/ES/2015,-105.198,21.81357,25.59,,27.49,,,
12551,ENERGÍA Y SERVICIOS COORDINADOS S.A. DE C.V.,PL/10592/EXP/ES/2015,-99.78026,20.19889,25.19,26.29,27.09,,,
12552,GASOLINERA CAMPECHE S.A. DE C.V.,PL/10593/EXP/ES/2015,-90.5207,19.85819,24.99,25.99,,,,
12553,SERVICIOS ESPECIALES S.A. DE C.V.,PL/10594/EXP/ES/2015,-90.22369,20.03085,24.89,25.99,26.19,,,
12557,AUTO SERVICIO NUEVO POBLADO S.A. DE C.V.,PL/10595/EXP/ES/2015,-103.3629,27.02135,25.61,,27.54,,,
12558,OPERACIONES Y SERVICIOS DE JUÁREZ S.A. DE C.V.,PL/10596/EXP/ES/2015,-106.4644,31.60685,18.96,21.32,24.29,,,
12560,SERVICIOS ESPECIALES S.A. DE C.V.,PL/10597/EXP/ES/2015,-90.5305,19.84342,24.99,25.99,26.39,,,
12561,ESTACIÓN AVENIDA MÉXICO 86 S. DE R. L. DE C. V.,PL/10598/EXP/ES/2015,-98.20838,19.06392,23.79,24.99,25.2,,,
12563,SERVICIO LOS COCOS S.A. DE C.V.,PL/10599/EXP/ES/2015,-96.13724,19.18351,24.34,25.64,26.64,,,
2881,NUEVA ESTACIÓN DE SERVICIO TRES ESTRELLAS NUCHO S.A. DE C.V.,PL/1060/EXP/ES/2015,-102.3585,20.70534,24.98,25.84,26.54,,,
12564,ESTACIÓN DE SERVICIO COMARCA S.A. DE C.V.,PL/10600/EXP/ES/2015,-99.24482,19.59319,23.61,24.74,25.38,,,
12565,SERVICIO MARIANA S.A. DE C.V.,PL/10601/EXP/ES/2015,-103.107,23.33318,,,,,,
12568,RAMA ESTACIÓN DE SERVICIO S.A. DE C.V.,PL/10602/EXP/ES/2015,-102.8056,21.35486,25.7,26.7,27.3,,,
12569,ENRIQUEZ MORENO HÉCTOR JAVIER JUDAS,PL/10603/EXP/ES/2015,-101.6906,21.13133,23.49,24.22,,,,
12572,ESTACIÓN LA ESQUINA 31 S.A. DE C.V.,PL/10604/EXP/ES/2015,-98.21271,19.03657,23.29,24.39,,,,
12574,SERVICIO ALJUNCAR S.A. DE C.V.,PL/10605/EXP/ES/2015,-101.6765,21.13834,23.62,24.52,24.79,,,
12575,SERVICIO RAMOS S.A. DE C.V.,PL/10606/EXP/ES/2015,-89.95988,20.91208,24.79,25.49,,,,
12576,SERVICIO BOULEVARD AEROPUERTO S.A. DE C.V.,PL/10607/EXP/ES/2015,-101.6099,21.08227,23.6,24.59,24.69,,,
12577,PMC GAS S. DE R. L. DE C. V.,PL/10608/EXP/ES/2015,-98.2148,19.02649,23.99,24.89,,,,
12579,SÚPER SERVICIO BOULEVARD AUSTRI S.A. DE C.V.,PL/10609/EXP/ES/2015,-101.7022,21.14123,23.72,24.6,,,,
3108,GRUPO INMOBILIARIO BAYBARR S.A. DE C.V.,PL/1061/EXP/ES/2015,-116.8883,32.51502,22.99,,,,,
12581,SERVICIO MALECON ORIENTE S.A. DE C.V.,PL/10610/EXP/ES/2015,-101.6788,21.13781,24.94,26.55,25.69,,,
12583,QU SER S.A. DE C.V.,PL/10611/EXP/ES/2015,-99.2403,19.88948,24.77,25.57,26.47,,,
12584,SERVICIO LEON-SILAO S.A. DE C.V.,PL/10612/EXP/ES/2015,-101.5959,21.06973,23.86,26.69,26.22,,,
12586,ESTACIÓN DE SERVICIO LAS HUERTAS S.A. DE C.V.,PL/10613/EXP/ES/2015,-101.7246,21.09691,23.6,24.5,24.42,,,
12588,SERVICIO JARAMILLO S.A. DE C.V.,PL/10614/EXP/ES/2015,-101.6719,21.17281,23.49,24.52,24.5,,,
12590,COMBUSTIBLES BONANZA S.A. DE C.V.,PL/10615/EXP/ES/2015,-101.6745,21.2025,23.6,24.5,24.49,,,
12591,COMBUSTIBLES PREMIER S.A. DE C.V.,PL/10616/EXP/ES/2015,-101.7285,21.12254,23.89,24.79,,,,
12592,MINIEXPRESS MÉXICO NORTE S. DE R. L. DE C. V.,PL/10617/EXP/ES/2015,-100.1888,25.64972,22.99,25.79,,,,
12593,MARÍA RAQUEL GRADILLA MONTES,PL/10618/EXP/ES/2015,-105.1376,21.17916,,,,,,
12595,SERVICIO SAN FELIPE DE PUEBLA S.A. DE C.V.,PL/10619/EXP/ES/2015,-98.20544,19.08141,23.43,24.59,25.82,,,
3051,"ESTACION PIRU, S.A. DE C.V.",PL/1062/EXP/ES/2015,-116.9288,32.46458,23.99,25.49,,,,
12608,SERVICIOS ECOLÓGICOS DEL MAYAB S. DE R. L. DE C. V.,PL/10620/EXP/ES/2015,-88.29866,18.5316,24.18,25.18,25.98,,,
12646,SERVICIO INGENIO S.A. DE C.V.,PL/10621/EXP/ES/2015,-99.1843,18.65843,24.39,25.29,25.99,,,
12617,DAGOBERTO MALDONADO DUARTE,PL/10622/EXP/ES/2015,-107.4158,29.2471,23.8,,24.95,,,
12697,SERVICIO PREMIER GUTIERREZ S.A. DE C.V.,PL/10623/EXP/ES/2015,-98.97381,19.80408,23.94,25.5,25.64,,,
12707,ESTACIÓN DE SERVICIOS SAN LUIS DE PUEBLA S.A. DE C.V.,PL/10624/EXP/ES/2015,-98.27165,19.05077,23.59,24.99,,,,
12676,INMOBILIARIA MAR DE LAS CALIFORNIAS S.A. DE C.V.,PL/10625/EXP/ES/2015,-116.7164,31.90333,24.3,26.3,25.3,,,
12677,LUBRICANTTES COSTA MAYA S.A. DE C.V.,PL/10626/EXP/ES/2015,-87.71961,18.75413,25.19,25.99,26.79,,,
12745,ARIEL MEDINA CASTILLO,PL/10627/EXP/ES/2015,-90.68378,19.62645,25.0,,26.75,,,
12747,SÚPER SERVICIO GARZAS BLANCAS S.A. DE C.V.,PL/10628/EXP/ES/2015,-98.89107,21.42546,24.8,25.59,26.0,,,
12749,"COMBUSTIBLES Y LUBRICANTES GARVA, S. DE R.L. DE C.V.",PL/10629/EXP/ES/2015,-114.7487,32.44664,20.59,23.25,,,,
2993,PERSIMOBILE S.A. DE C.V.,PL/1063/EXP/ES/2015,-99.11136,19.44769,23.69,24.79,,Ciudad de Mexico,Venustiano Carranza,Avenida Ing. Eduardo Molina No. 422
12750,SERVICIO MARINA LAS PALMAS S.A. DE C.V.,PL/10630/EXP/ES/2015,-105.238,20.68593,24.2,,25.79,,,
12755,ARMANDO MEDINA CHÁVEZ,PL/10631/EXP/ES/2015,-98.88151,23.50367,24.9,25.3,26.3,,,
12836,"GASOLINERA REFORMA, SA DE CV",PL/10632/EXP/ES/2015,-109.6924,23.05886,25.99,26.99,27.19,,,
12837,"GASOLINERA REFORMA, SA DE CV",PL/10633/EXP/ES/2015,-109.9245,22.9159,25.89,27.49,27.29,,,
12838,SERVICIO RP S.A. DE C.V.,PL/10634/EXP/ES/2015,-115.4788,32.61231,22.99,24.99,,,,
12841,SÚPER SERVICIO HERRERA DEL NORTE S.A. DE C.V.,PL/10635/EXP/ES/2015,-106.3671,31.63939,18.99,,24.29,,,
12842,SÚPER SERVICIO HERRERA DEL NORTE S.A. DE C.V.,PL/10636/EXP/ES/2015,-106.3638,31.65878,18.99,,24.29,,,
12843,SÚPER SERVICIO HERRERA DEL NORTE S.A. DE C.V.,PL/10637/EXP/ES/2015,-106.3703,31.67724,18.99,,,,,
12844,SÚPER SERVICIO HERRERA DEL NORTE S.A. DE C.V.,PL/10638/EXP/ES/2015,-106.5339,31.61403,18.96,,24.29,,,
12845,AUTOSERVICIO YORY S.A. DE C.V.,PL/10639/EXP/ES/2015,-108.5033,25.51186,24.99,25.89,25.97,,,
3072,ADMINISTRADORA DEL COLORADO S. DE R.L. DE C.V.,PL/1064/EXP/ES/2015,-115.4623,32.63267,23.15,23.95,,,,
12846,"SERVICIO HORTA DE ENSENADA, SA DE CV",PL/10640/EXP/ES/2015,-116.2477,31.32661,24.99,26.89,25.99,,,
12847,SÚPER SERVICIO HERRERA DEL NORTE S.A. DE C.V.,PL/10641/EXP/ES/2015,-106.4356,31.60589,18.96,21.32,24.29,,,
12848,SÚPER SERVICIO HERRERA DEL NORTE S.A. DE C.V.,PL/10642/EXP/ES/2015,-106.4544,31.70721,18.99,,24.29,,,
12763,MARÍA ANGELICA SALAZAR MARTINEZ,PL/10643/EXP/ES/2015,-98.56389,19.59167,22.68,24.02,23.9,,,
12764,JESÚS BORREGO INGUANZO,PL/10644/EXP/ES/2015,-102.9781,22.64687,25.49,25.89,27.09,,,
12765,JOSÉ EVELIO PÉREZ ALANIS,PL/10645/EXP/ES/2015,-99.20357,26.03329,,,,,,
12766,PARADERO STA MARIA  S.A. DE C.V.,PL/10646/EXP/ES/2015,-101.4233,26.83416,25.99,27.29,26.99,,,
12767,"GASOLINERA REFORMA, SA DE CV",PL/10647/EXP/ES/2015,-111.6485,25.03856,24.99,26.99,,,,
12768,"ESTACION EL NARANJO, SA DE CV",PL/10648/EXP/ES/2015,-111.6536,25.02652,24.99,26.99,27.29,,,
12770,SERVICIO TAYOLTITA S.A. DE C.V.,PL/10649/EXP/ES/2015,-105.9242,24.10412,,,,,,
2938,ESTACIÓN DE SERVICIO ESMERALDA S.A. DE C.V.,PL/1065/EXP/ES/2015,-103.2834,20.54134,,,,,,
12771,PARANGARICUTIRO S.A. DE C.V.,PL/10650/EXP/ES/2015,-102.1157,19.4123,24.39,25.49,26.2,,,
12772,JOSÉ ALEJANDRO GUZMÁN PALAFOX,PL/10651/EXP/ES/2015,-97.60076,19.18911,23.42,24.55,24.82,,,
12773,AVARO TELLO RODRÍGUEZ,PL/10652/EXP/ES/2015,-101.4784,25.37427,24.8,,25.99,,,
12774,PARADOR SANTA CECILIA S.A. DE C.V.,PL/10653/EXP/ES/2015,-102.1432,23.48661,24.25,25.85,26.1,,,
12775,JOSÉ MARÍA MARTINEZ PEÑA,PL/10654/EXP/ES/2015,-97.4928,25.87388,18.85,,,,,
12776,AUTOSERVICIO MCGAHEY S.A. DE C.V.,PL/10655/EXP/ES/2015,-108.9785,27.04603,,,,,,
12778,JOSÉ REYES GODINEZ,PL/10656/EXP/ES/2015,-103.6944,19.23575,25.49,26.27,26.5,,,
12780,LOSAR DE BAJA S. DE R. L. DE C. V.,PL/10657/EXP/ES/2015,-116.9437,32.54389,22.99,,25.39,,,
12779,SANTA FE MULTIGAS CARBONIFERA S.A. DE C.V.,PL/10658/EXP/ES/2015,-101.1458,27.88396,25.79,27.09,26.99,,,
12781,GASOLINERA LV S.A. DE C.V.,PL/10659/EXP/ES/2015,-102.8918,21.18143,25.28,26.35,27.3,,,
2764,GASOLINERA AUTLÁN S.A. DE C.V.,PL/1066/EXP/ES/2015,-104.3515,19.76783,26.2,27.2,27.1,,,
12783,GASOLINERIA MORELIA S.A. DE C.V.,PL/10660/EXP/ES/2015,-101.2044,19.70318,25.15,26.29,26.05,,,
12784,SERVICIO SANTA LUCIA S. A.,PL/10661/EXP/ES/2015,-90.49851,19.84613,,,,,,
12785,ROBERTO DE LA HERRAN RIVAS,PL/10662/EXP/ES/2015,-117.0679,32.48327,23.99,25.99,25.89,,,
12786,MINISERVICIO DE RIOVERDE S.A. DE C.V.,PL/10663/EXP/ES/2015,-99.99047,21.9252,24.39,25.59,25.86,,,
12787,ESTACIÓN DE SERVICIOS ZAPOTECOS S.A. DE C.V.,PL/10664/EXP/ES/2015,-97.02999,16.72757,25.19,,26.98,,,
12788,GRUPO GAS MOCHOA S.A. DE C.V.,PL/10665/EXP/ES/2015,-99.63388,19.26358,23.99,24.99,25.79,,,
12789,GASOLINERA LUNA S.A. DE C.V.,PL/10666/EXP/ES/2015,-99.68647,19.27688,23.59,24.99,24.99,,,
12790,ENERGÍA GUADALUPANA S.A. DE C.V.,PL/10667/EXP/ES/2015,-103.27,20.63323,23.98,25.49,,,,
12791,GAS EL DESMONTE S.A. DE C.V.,PL/10668/EXP/ES/2015,-98.7911,20.0463,,,,,,
12792,"ESTACION EL NARANJO, SA DE CV",PL/10669/EXP/ES/2015,-111.6783,25.04248,24.99,26.99,27.29,,,
3092,SEVIBA S.A. DE C.V.,PL/1067/EXP/ES/2015,-100.7848,20.53603,24.99,26.99,26.89,,,
12793,"GASOLINERA REFORMA, SA DE CV",PL/10670/EXP/ES/2015,-109.9374,22.90462,25.49,27.49,,,,
12794,"GASOLINERA REFORMA, SA DE CV",PL/10671/EXP/ES/2015,-109.9462,22.91635,25.89,27.49,27.29,,,
12795,"GASOLINERA REFORMA, SA DE CV",PL/10672/EXP/ES/2015,-109.9488,22.91197,25.89,27.49,27.29,,,
12796,MARTHA ERIKA CHACON MENDEZ,PL/10673/EXP/ES/2015,-94.48738,18.1391,,,,,,
12797,RUBÉN BARRERA ORDOÑEZ,PL/10674/EXP/ES/2015,-96.65836,19.35624,,,,,,
12798,SERVICIO SAN FRANCISCO ASSISI S.A. DE C.V.,PL/10675/EXP/ES/2015,-97.35987,19.82551,24.28,24.83,25.67,,,
12799,BOHON AUTO SERVICIO S.A. DE C.V.,PL/10676/EXP/ES/2015,-114.7786,32.46807,19.99,22.99,,,,
12800,J JESÚS VAZQUEZ,PL/10677/EXP/ES/2015,-100.3435,21.1344,23.57,24.65,25.2,,,
12802,PABLO MORALES UGALDE,PL/10678/EXP/ES/2015,-97.55215,18.83491,,,,,,
12803,DISTRIBUIDORES DE COMBUSTIBLE DE PALMAR DE BRAVO S.A. DE C.V.,PL/10679/EXP/ES/2015,-97.69188,18.91526,,,,,,
3004,NX LA PAZ S.A. DE C.V.,PL/1068/EXP/ES/2015,-100.5931,21.29385,25.09,26.05,25.99,,,
12804,DISTRIBUIDORES DE COMBUSTIBUSTIBLE DE PALMAR DE BRAVO S. A. DE C. V.,PL/10680/EXP/ES/2015,-97.37624,18.43544,,,,,,
12805,PABLO MORALES UGALDE,PL/10681/EXP/ES/2015,-97.72171,18.88152,,,,,,
12806,AUTO CONSUMO GOLFO S.A. DE C.V.,PL/10682/EXP/ES/2015,-96.20078,19.21495,23.4,23.99,24.95,,,
12807,PASO DEL NORTE ESTACIÓN DE SERVICIO S.A. DE C.V.,PL/10683/EXP/ES/2015,-103.3899,25.62088,25.29,26.99,27.79,,,
12808,JULIO EDUARDO MORALES GENES,PL/10684/EXP/ES/2015,-97.63999,18.66786,,,,,,
12810,REY MORALES UGALDE,PL/10685/EXP/ES/2015,-97.77401,18.97687,,,,,,
12815,PASO DEL NORTE ESTACIÓN DE SERVICIO S.A. DE C.V.,PL/10686/EXP/ES/2015,-103.4592,25.57108,25.4,26.99,27.79,,,
12816,SERVIEXPRESS HUERTA SANGUINO S.A. DE C.V.,PL/10687/EXP/ES/2015,-101.7793,19.81877,25.48,26.49,26.73,,,
12817,GASOTECA S.A. DE C.V.,PL/10688/EXP/ES/2015,-103.3466,19.45878,26.29,27.29,27.19,,,
12818,COMBUSTIBLES Y LUBRICANTES RACHALI S. A.,PL/10689/EXP/ES/2015,-108.1406,29.18578,,,,,,
2815,SERVICIO SHALON S.A. DE C.V.,PL/1069/EXP/ES/2015,-100.4143,20.92809,23.99,25.99,25.79,,,
12819,COMBUSTIBLES Y LUBRICANTES RACHALI S. A.,PL/10690/EXP/ES/2015,-108.1434,29.19452,,,,,,
12820,GRUPO SÁNCHEZ DE SAHUAYO S.A. DE C.V.,PL/10691/EXP/ES/2015,-102.7168,20.04475,25.45,26.32,,,,
12826,JORGE LUIS HERNÁNDEZ HERNÁNDEZ,PL/10692/EXP/ES/2015,-97.66202,17.26169,24.95,25.9,26.4,,,
12829,"COMBUSTIBLES Y LUBRICANTES GARVA, S. DE R.L. DE C.V.",PL/10693/EXP/ES/2015,-114.4979,31.68539,24.29,25.29,25.29,,,
12831,GASOLINERA ALBERIQUE S.A. DE C.V.,PL/10694/EXP/ES/2015,-97.78246,17.79774,,,,,,
12832,COMERCIALIZADORA CENTRAL DE COMBUSTIBLE S.A. DE C.V.,PL/10695/EXP/ES/2015,-101.846,21.28652,,,,,,
12834,GASOLINERA RS S.A. DE C.V.,PL/10696/EXP/ES/2015,-110.9883,29.12279,25.69,26.99,,,,
12760,AUTOSERVICIO CACHANILLA S.A. DE C.V.,PL/10697/EXP/ES/2015,-115.4957,32.6553,,,,,,
12762,SUPER SERVICIO BUGAMBILIAS 123 S.A. DE C.V.,PL/10698/EXP/ES/2015,-98.13819,19.42385,23.99,24.99,25.9,,,
12926,MULTISERVICIOS AMAYA DEL SUR S.A. DE C.V.,PL/10699/EXP/ES/2015,-105.123,21.95331,25.9,26.7,27.9,,,
2944,SERVICIO LA FUENTE S.A. DE C.V.,PL/1070/EXP/ES/2015,-98.36227,20.09527,23.99,24.89,25.59,,,
12928,SERVICIO MINA DE PEÑA S.A. DE C.V.,PL/10700/EXP/ES/2015,-103.7721,19.28149,24.65,,26.25,,,
12932,MARILYN BETANCOURT MORENO,PL/10701/EXP/ES/2015,-103.1521,18.77871,25.99,26.6,27.5,,,
12934,HÉCTOR ARMANDINO FIERRO HOLGUIN,PL/10702/EXP/ES/2015,-106.0115,31.37379,,,,,,
12935,"GASOLINERA PESQUEIRA, S.A. DE C.V.",PL/10703/EXP/ES/2015,-108.6213,25.65763,24.9,25.9,26.3,,,
12936,BRIGIDA ESTRADA SEVILLA,PL/10704/EXP/ES/2015,-97.98408,25.39153,,,,,,
12938,CORPORATIVO DE COMBUSTIBLES Y ESTACIONES DE SERVICIONES DE SERVICIO S.A. DE C.V.,PL/10705/EXP/ES/2015,-99.20129,19.76903,24.79,25.79,25.59,,,
12939,SÚPER SERVICIO HERRERA DEL NORTE S.A. DE C.V.,PL/10706/EXP/ES/2015,-106.4321,31.70836,18.96,21.32,,,,
12941,GRUPO EL REY CORPORATIVO S. DE R.L. DE C.V.,PL/10707/EXP/ES/2015,-110.9169,27.92221,25.89,27.89,27.69,,,
12943,GRUPO EL REY CORPORATIVO S. DE R.L. DE C.V.,PL/10708/EXP/ES/2015,-110.9292,27.93756,25.89,27.89,27.69,,,
12944,GRUPO EL REY CORPORATIVO S. DE R.L. DE C.V.,PL/10709/EXP/ES/2015,-110.9082,27.89952,25.89,27.89,,,,
2758,SERVICIO MAR CARIBEÑO S.A. DE C.V.,PL/1071/EXP/ES/2015,-86.86044,21.1751,25.93,26.93,,,,
12947,LUBRIGAS LA ESTANCIA S.A. DE C.V.,PL/10710/EXP/ES/2015,-101.3613,20.697,25.59,27.29,,,,
12949,"GASOLINERA REFORMA, SA DE CV",PL/10711/EXP/ES/2015,-110.3189,24.12736,24.69,26.69,,,,
12950,NOGALES ENERGÉTICOS S.A. DE C.V.,PL/10712/EXP/ES/2015,-111.3455,26.01117,25.99,26.99,,,,
12952,NOGALES ENERGÉTICOS S.A. DE C.V.,PL/10713/EXP/ES/2015,-110.2258,23.44555,25.99,26.99,27.19,,,
12951,NOGALES ENERGETICOS S.A. DE C.V.,PL/10714/EXP/ES/2015,-111.7782,25.25865,25.29,26.99,27.29,,,
12953,"ESTACION EL NARANJO, SA DE CV",PL/10715/EXP/ES/2015,-111.3499,26.0068,25.99,26.99,27.29,,,
12954,"AUTOSERVICIO BENITEZ, SA DE CV",PL/10716/EXP/ES/2015,-116.8601,32.47519,23.99,25.99,,,,
12955,GRUPO CASAL S.A. DE C.V.,PL/10717/EXP/ES/2015,-103.2629,20.60583,,,,,,
12956,"ESTACION EL NARANJO, SA DE CV",PL/10718/EXP/ES/2015,-110.9709,31.24372,20.79,23.89,25.49,,,
12957,SERVICIO TARECUATO S.A. DE C.V.,PL/10719/EXP/ES/2015,-102.4799,19.844,,,,,,
2779,SERVICIO EXPRESS CEGAS S.A. DE C.V.,PL/1072/EXP/ES/2015,-100.8954,20.51732,25.21,25.65,27.59,,,
12958,SERVICIO HUAXTLA S.A. DE C.V.,PL/10720/EXP/ES/2015,-103.6664,20.71037,,,,,,
12961,GASOLINERA TURYMAYO S.A. DE C.V.,PL/10721/EXP/ES/2015,-109.4271,27.07357,,,27.46,,,
12960,SERVICIO ANGEL S.A. DE C.V.,PL/10722/EXP/ES/2015,-103.4451,20.68675,25.63,26.85,25.99,,,
12965,SERVICIO RÍO NILO S.A. DE C.V.,PL/10723/EXP/ES/2015,-103.2845,20.64429,,,,,,
12967,MARIVALE S.A. DE C.V.,PL/10724/EXP/ES/2015,-101.3391,20.68373,25.59,,27.29,,,
12969,GASOLINERA PLAZA DEL SOL S.A. DE C.V.,PL/10725/EXP/ES/2015,-103.4054,20.64807,25.58,26.85,,,,
12972,OPERADORA DE COMBUSTIBLES SANDOVAL S.A. DE C.V.,PL/10726/EXP/ES/2015,-99.49839,17.53725,25.62,26.03,27.3,,,
12973,SERVICIO TONALA S.A. DE C.V.,PL/10727/EXP/ES/2015,-103.2465,20.61918,25.55,,,,,
12976,REAL TONALTECAS S.A. DE C.V.,PL/10728/EXP/ES/2015,-103.2458,20.62766,25.63,26.82,,,,
12978,JESÚS ALFONSO AMILLANO LÓPEZ,PL/10729/EXP/ES/2015,-108.0881,25.45516,25.39,26.39,26.59,,,
3010,MABALE COMBUSTIBLES S.A. DE C.V.,PL/1073/EXP/ES/2015,-99.22155,20.01196,24.95,,26.3,,,
12981,JESÚS ALFONSO AMILLANO LÓPEZ,PL/10730/EXP/ES/2015,-108.3038,25.4962,24.98,25.98,26.38,,,
12982,GALVAN FOX S.A. DE C.V.,PL/10731/EXP/ES/2015,-99.55277,27.49847,21.99,22.99,,,,
12850,SÚPER SERVICIO HERRERA DEL NORTE S.A. DE C.V.,PL/10732/EXP/ES/2015,-106.3784,31.63366,18.96,21.32,,,,
12851,SÚPER SERVICIO HERRERA DEL NORTE S.A. DE C.V.,PL/10733/EXP/ES/2015,-106.4669,31.73836,18.99,21.39,,,,
12852,SÚPER SERVICIO HERRERA DEL NORTE S.A. DE C.V.,PL/10734/EXP/ES/2015,-100.3531,19.558,,,,,,
12853,SÚPER SERVICIO HERRERA DEL NORTE S.A. DE C.V.,PL/10735/EXP/ES/2015,-106.3703,31.61579,18.96,21.32,,,,
12854,SÚPER SERVICIO HERRERA DEL NORTE S.A. DE C.V.,PL/10736/EXP/ES/2015,-106.3778,31.6176,18.96,21.32,,,,
12855,DIEGO AGUSTIN RODRIGUEZ FLORES,PL/10737/EXP/ES/2015,-100.337,21.13737,23.75,24.3,25.3,,,
12856,AUTO SERVICIO MALECON S.A. DE C.V.,PL/10738/EXP/ES/2015,-104.3246,19.10288,24.15,25.35,,,,
12859,FRANCISCO HERNÁNDEZ FLORES,PL/10739/EXP/ES/2015,-98.40857,18.92925,23.18,23.29,24.58,,,
3098,ESTACIÓN DE SERVICIO EL REFUGIO S.A. DE C.V.,PL/1074/EXP/ES/2015,-99.19469,20.01306,24.77,25.6,26.45,,,
12862,ESTACIÓN DE SERVICIO QUIROGA S.A. DE C.V.,PL/10740/EXP/ES/2015,-111.0221,29.08141,23.99,,,,,
12863,SERVICIOS GRUPO ÁGUILA S.A. DE C.V.,PL/10741/EXP/ES/2015,-107.3523,24.80269,24.99,,,,,
12864,SERVICIOS GRUPO ÁGUILA S.A. DE C.V.,PL/10742/EXP/ES/2015,-107.3663,24.78974,22.99,24.99,25.99,,,
12865,SERVICIOS GRUPO ÁGUILA S.A. DE C.V.,PL/10743/EXP/ES/2015,-107.3663,24.77699,24.99,,,,,
12866,SERVICIOS GRUPO ÁGUILA S.A. DE C.V.,PL/10744/EXP/ES/2015,-107.3944,24.79992,24.99,,,,,
12867,SUMINISTROS ENERGETICOS 57 SA DE CV,PL/10745/EXP/ES/2015,-101.1562,27.89159,25.79,,26.99,,,
12868,ATILANO VILLEGAS SERGUIO,PL/10746/EXP/ES/2015,-102.1193,20.3712,24.99,25.76,26.98,,,
12869,ESTACIÓN GASOSERVICE S.A. DE C.V.,PL/10747/EXP/ES/2015,-116.8625,32.50763,23.99,25.49,,,,
12870,GRUPO ARGOIL CASABLANCA S. DE R. L. DE C. V.,PL/10748/EXP/ES/2015,-116.8902,32.501,23.79,24.99,25.89,,,
12871,GASOLINERA BARCLIN S.A. DE C.V.,PL/10749/EXP/ES/2015,-113.5082,31.36575,,,,,,
2788,TRACIDIECHO S.A. DE C.V.,PL/1075/EXP/ES/2015,-98.35064,20.07348,22.97,23.57,23.57,,,
12872,GRUPO ARGOIL CASABLANCA S. DE R. L. DE C. V.,PL/10750/EXP/ES/2015,-116.8635,32.51416,23.99,25.99,,,,
12874,MAX ERANDENI S.A. DE C.V.,PL/10751/EXP/ES/2015,-101.1926,19.74493,23.98,24.98,26.28,,,
12873,ESTACIÓN DE SERVICIO SD ESPITIA S.A. DE C.V.,PL/10752/EXP/ES/2015,-101.346,20.4806,25.39,27.09,27.99,,,
12875,SERVICIO Y CALIDAD DE HUEYATZACOALCO S.A. DE C.V.,PL/10753/EXP/ES/2015,-98.45135,19.28273,23.99,24.99,25.99,,,
12876,SERVICIO B. JUÁREZ S.A. DE C.V.,PL/10754/EXP/ES/2015,-101.3397,20.67168,24.35,25.63,,,,
12877,GUSTAVO ROMAN ARELLANO,PL/10755/EXP/ES/2015,-104.0234,24.78985,25.2,,,,,
12880,OPERADORA LAS BAJADAS S.A. DE C.V.,PL/10756/EXP/ES/2015,-96.19479,19.16058,23.35,24.39,25.35,,,
12881,GASOLINERA JAVITO S.A. DE C.V.,PL/10757/EXP/ES/2015,-110.0221,27.35398,25.99,27.39,27.19,,,
12882,FRANCISCO GUERRERRO ORTEGA,PL/10758/EXP/ES/2015,-99.21813,19.32804,25.49,26.99,,Ciudad de Mexico,La Magdalena Contreras,Avenida San Jeronimo No. 914
12883,GASOLINERA LA MUSA S.A. DE C.V.,PL/10759/EXP/ES/2015,-98.44004,20.14836,24.07,25.53,26.19,,,
3155,GASOLINERA CASEN S.A. DE C.V.,PL/1076/EXP/ES/2015,-101.6769,21.14738,24.6,26.89,26.69,,,
12884,JOB MORALES UGALDE,PL/10760/EXP/ES/2015,-97.95194,19.01131,,,,,,
12885,"CORPORATIVO ENERVISION, S.A.P.I. DE C.V.",PL/10761/EXP/ES/2015,-110.9636,29.12588,25.99,27.69,27.39,,,
12886,COMBUSTIBLES ESPECIALIZADOS JADE S.A. DE C.V.,PL/10762/EXP/ES/2015,-98.72505,20.0252,23.99,24.99,25.99,,,
12887,"CORPORATIVO ENERVISION, S.A.P.I. DE C.V.",PL/10763/EXP/ES/2015,-110.9494,29.10907,25.99,27.69,,,,
12888,"CORPORATIVO ENERVISION, S.A.P.I. DE C.V.",PL/10764/EXP/ES/2015,-110.9304,29.05519,25.99,27.69,,,,
12889,GRUPO CAMTOS S.A. DE C.V.,PL/10765/EXP/ES/2015,-99.49616,19.18447,22.99,25.39,25.49,,,
12890,INSIGNIA COMBUSTIBLES S.A. DE C.V.,PL/10766/EXP/ES/2015,-102.0512,20.35408,24.59,25.89,26.57,,,
12892,"PETROMAX, S.A. DE C.V.",PL/10767/EXP/ES/2015,-106.1304,28.65333,24.99,26.99,,,,
12893,"CORPORATIVO ENERVISION, S.A.P.I. DE C.V.",PL/10768/EXP/ES/2015,-111.0233,29.12117,25.99,27.69,27.39,,,
12894,"CORPORATIVO ENERVISION, S.A.P.I. DE C.V.",PL/10769/EXP/ES/2015,-110.9965,29.08822,25.99,27.69,,,,
2847,SERVICIO RINCONADA S.A. DE C.V.,PL/1077/EXP/ES/2015,-102.2935,21.84787,24.88,26.59,,,,
12896,GASOL SALTILLO S.A. DE C.V.,PL/10770/EXP/ES/2015,-101.0324,25.45461,,,,,,
12897,SERVICIO EL DURANGUEÑO S.A. DE C.V.,PL/10771/EXP/ES/2015,-104.6413,24.03069,24.99,,,,,
12898,"CORPORATIVO ENERVISION, S.A.P.I. DE C.V.",PL/10772/EXP/ES/2015,-110.939,29.04007,25.99,27.69,27.39,,,
12899,ESTACIÓN DE SERVICIO LA MEXICANA S.A. DE C.V.,PL/10773/EXP/ES/2015,-110.1621,29.70918,25.0,25.9,26.8,,,
12901,MAYRA ALEJANDRA MORALES ROMERO,PL/10774/EXP/ES/2015,-93.38678,17.99861,23.43,24.22,25.1,,,
12902,SERVICIO LOMAS AGUASCALIENTES SA DE CV,PL/10775/EXP/ES/2015,-102.2537,21.89745,24.79,25.89,,,,
12903,SERVICIO SEGOVIAS S. DE R. L. DE C. V.,PL/10776/EXP/ES/2015,-104.6557,24.02594,25.99,24.73,,,,
12906,SERVICIO LOMAS DE DURANGO S. DE R. L. DE C. V.,PL/10777/EXP/ES/2015,-104.6909,24.01553,24.73,25.99,26.62,,,
12907,AGUSTÍN MORALES ZARATE,PL/10778/EXP/ES/2015,-101.1374,20.21269,25.19,,,,,
12908,GASOLINERIA YURIRIA CUATRO CAMINOS S.A. DE C.V.,PL/10779/EXP/ES/2015,-101.1516,20.19905,25.19,25.99,26.69,,,
2943,GRUPO GOCALVI SA DE CV,PL/1078/EXP/ES/2015,-100.7805,20.54773,21.99,22.99,24.49,,,
12909,EXELCO CARBURANTES S.A. DE C.V.,PL/10780/EXP/ES/2015,-99.51974,27.44647,20.99,22.99,26.29,,,
12911,SERVICIO LA IGUANA S.A. DE C.V.,PL/10781/EXP/ES/2015,-104.2841,19.07409,25.25,26.65,26.8,,,
12912,PRESTADORA DE SERVICIOS PINO SUÁREZ S. P. R. DE R. L.,PL/10782/EXP/ES/2015,-104.4917,23.88047,24.55,,25.75,,,
12914,SERVICIOS Y ENERGÉTICOS HERAST S.A. DE C.V.,PL/10783/EXP/ES/2015,-99.85513,16.87851,24.5,25.0,,,,
12915,VISTA AL PACIFICO S.A. DE C.V.,PL/10784/EXP/ES/2015,-100.3141,18.57209,,,,,,
12916,MARÍA DEL CARMEN ELENA PLIEGO VILLANUEVA,PL/10785/EXP/ES/2015,-99.58998,19.14055,24.3,25.08,25.99,,,
12917,SERVICIOS GASOLINEROS ANACELE S.A. DE C.V.,PL/10786/EXP/ES/2015,-99.23794,18.95727,24.26,25.43,25.89,,,
12920,SÚPER SERVICIO MACIAS S.A. DE C.V.,PL/10787/EXP/ES/2015,-99.99297,20.38598,23.39,24.19,24.69,,,
12921,SERVICIO X-O S.A. DE C.V.,PL/10788/EXP/ES/2015,-98.88602,20.13424,23.49,24.35,25.54,,,
12924,SERVICIO TLAXIACA S.A. DE C.V.,PL/10789/EXP/ES/2015,-98.89347,20.11793,23.49,,25.54,,,
3129,SERVICIO CASFER S.A. DE C.V.,PL/1079/EXP/ES/2015,-101.6944,21.03184,24.92,25.92,26.86,,,
12925,SERVICIO MURCIO GARCÍA S.A. DE C.V.,PL/10790/EXP/ES/2015,-97.67567,17.27344,25.2,26.4,26.5,,,
12984,UNIVERSIDAD NACIONAL AUTÓNOMA DE MÉXICO,PL/10791/EXP/ES/2015,-99.18559,19.33661,24.29,25.69,,Ciudad de Mexico,Coyoacan,Avenida Universidad No. 3000
12986,"BP ESTACIONES Y SERVICIOS ENERGETICOS, S.A. DE C.V.",PL/10792/EXP/ES/2015,-98.3492,20.0893,24.59,25.89,26.49,,,
12987,RODRÍGUEZ Y RODRÍGUEZ S.A. DE C.V.,PL/10793/EXP/ES/2015,-96.93221,18.89021,23.88,,,,,
12988,MULTISERVICIO DEL MINERAL S.A. DE C.V.,PL/10794/EXP/ES/2015,-102.8882,23.1652,23.99,25.3,25.7,,,
12989,GASOLINERA SAN PABLO S.A. DE C.V.,PL/10795/EXP/ES/2015,-109.9511,28.62254,,,,,,
12990,SERVICIO MEGAL S.A. DE C.V.,PL/10796/EXP/ES/2015,-99.59363,19.27623,23.79,24.48,,,,
12992,SERVICIO RIMER DE TIANGUISTENCO S.A. DE C.V.,PL/10797/EXP/ES/2015,-99.46074,19.16472,,,,,,
12991,ESTACIÓN DE SERVICIO LA MORENA S. DE R. L. DE C. V.,PL/10798/EXP/ES/2015,-97.02965,19.01848,24.4,,26.12,,,
12993,SÚPER SERVICIO M Y M S.A. DE C.V.,PL/10799/EXP/ES/2015,-99.56932,19.20387,22.89,23.89,24.79,,,
3085,MARCOFAN S.A. DE C.V.,PL/1080/EXP/ES/2015,-98.96519,19.34729,23.75,25.19,25.25,,,
12994,CARLOS ADAN GUERRA GUERRA,PL/10800/EXP/ES/2015,-100.0902,25.64112,22.99,25.98,26.45,,,
12995,JESÚS AGUILAR HERNÁNDEZ,PL/10801/EXP/ES/2015,-99.6485,19.6095,25.29,,,,,
12998,MARÍA MERCEDES BELTRAN RIOS,PL/10802/EXP/ES/2015,-104.1221,24.44228,25.72,26.71,26.98,,,
12999,JESÚS BORREGO INGUANZO,PL/10803/EXP/ES/2015,-102.9758,22.64605,,,,,,
13005,GASOLINERA LOS NICHOS S.A. DE C.V.,PL/10804/EXP/ES/2015,-97.3703,20.43095,24.47,25.45,26.5,,,
13006,GASOLINERA LOS TORITOS S.A. DE C.V.,PL/10805/EXP/ES/2015,-97.48749,20.53177,,,,,,
13007,GASOLINERA LOS TOROS S.A. DE C.V.,PL/10806/EXP/ES/2015,-97.51306,20.50544,24.69,25.45,26.6,,,
13009,AUTOSERVICIO ALMECATLA PUEBLA S.A. DE C.V.,PL/10807/EXP/ES/2015,-98.24084,19.14392,23.33,24.53,25.4,,,
13011,"BP ESTACIONES Y SERVICIOS ENERGETICOS, S.A. DE C.V.",PL/10808/EXP/ES/2015,-98.28584,19.09426,24.19,25.39,25.59,,,
13012,AUTOSERVICIO MAGESTIC S.A. DE C.V.,PL/10809/EXP/ES/2015,-98.24628,18.97175,23.83,24.89,25.99,,,
3084,SERVICIO LOPSOL S.A. DE C.V.,PL/1081/EXP/ES/2015,-98.58901,19.75497,23.99,25.29,26.05,,,
13013,LA CASA DEL SOL GASOLINERIA S.A. DE C.V.,PL/10810/EXP/ES/2015,-97.50146,19.50703,24.39,25.39,26.39,,,
13015,SERVICIOS PUERTA VIEJA S.A. DE C.V.,PL/10811/EXP/ES/2015,-102.7823,20.79037,,,26.09,,,
13016,ESTACIÓN DE SERVICIO ATEQUIZA S.A. DE C.V.,PL/10812/EXP/ES/2015,-103.3743,20.65371,23.19,,25.19,,,
13017,SERVICIO IBARRA HERMANOS S.A. DE C.V.,PL/10813/EXP/ES/2015,-114.0482,27.96782,25.82,26.76,28.51,,,
13018,RAMÓN RUIZ ARREOLA,PL/10814/EXP/ES/2015,-110.0858,27.55506,24.99,26.49,26.99,,,
13020,SERVICIO URIMA S.A. DE C.V.,PL/10815/EXP/ES/2015,-112.2639,27.33507,25.79,26.71,27.5,,,
13023,SERVICIO CAMECUARO S.A. DE C.V.,PL/10816/EXP/ES/2015,-102.2024,19.89677,24.88,,26.28,,,
13024,SERVICIO EXPRESS DE MORELIA S.A. DE C.V.,PL/10817/EXP/ES/2015,-101.2299,19.67758,24.99,26.41,25.69,,,
13025,ANTELIA QUIROGA MASCORRO,PL/10818/EXP/ES/2015,-97.86742,25.66705,,,,,,
13027,ENERGÉTICOS RODRÍGUEZ S.A. DE C.V.,PL/10819/EXP/ES/2015,-97.81623,25.65157,21.99,23.99,24.19,,,
2998,SÚPER SERVICIO CANATLÁN S.A. DE C.V.,PL/1082/EXP/ES/2015,-104.7765,24.52555,25.81,26.39,25.79,,,
13029,SERVICIOS INTEGRALES DE COMBUSTIBLES S.A. DE C.V.,PL/10820/EXP/ES/2015,-100.4803,20.70246,22.79,23.69,24.89,,,
13030,SÚPER SERVICIO RIOLUNA S.A. DE C.V.,PL/10821/EXP/ES/2015,-99.03734,19.59498,24.1,25.55,,,,
13031,PABELLON DE ZAPOTLÁN S. P. R. DE R. L.,PL/10822/EXP/ES/2015,-98.89012,19.93274,24.44,25.18,25.98,,,
13032,SÚPER SERVICIO SAN RAFAEL S.A. DE C.V.,PL/10823/EXP/ES/2015,-99.03635,19.5994,24.1,25.55,25.28,,,
13033,SERVICIOS GASOLINEROS DE MÉXICO S.A. DE C.V.,PL/10824/EXP/ES/2015,-104.9088,27.12373,25.69,26.98,26.99,,,
13035,SERVICIO EL BERRENDO S.A. DE C.V.,PL/10825/EXP/ES/2015,-114.0115,28.0045,24.55,,25.66,,,
13036,SERVICIO EL PRADO S.A. DE C.V.,PL/10826/EXP/ES/2015,-103.3181,19.68055,24.97,25.97,25.97,,,
13141,ENRIQUE QUEZADA SÁNCHEZ,PL/10827/EXP/ES/2015,-101.9852,18.88451,25.6,26.6,27.76,,,
13142,OPERADORA DE MINIESTACIONES COMBUSERV S.A. DE C.V.,PL/10828/EXP/ES/2015,-99.688,19.28875,23.49,24.69,25.49,,,
13143,"Corporativo Gasolinero del Caribe, S.A. de C.V.",PL/10829/EXP/ES/2015,-89.62032,20.97563,23.49,24.35,,,,
3094,ENERGÉTICOS Y SERVICIOS S.A. DE C.V.,PL/1083/EXP/ES/2015,-98.45954,20.05484,,,,,,
13144,OPERADORA DE MINIESTACIONES COMBUSERV S.A. DE C.V.,PL/10830/EXP/ES/2015,-99.56115,19.31021,23.49,24.59,25.49,,,
13146,OPERADORA DE MINIESTACIONES COMBUSERV S.A. DE C.V.,PL/10831/EXP/ES/2015,-99.2207,20.06902,24.49,24.89,25.89,,,
13148,OPERADORA DE MINIESTACIONES COMBUSERV S.A. DE C.V.,PL/10832/EXP/ES/2015,-99.55722,19.28745,23.49,24.59,25.49,,,
13149,"ESTACION DE SERVICIO LA LAGUNA, S.A. DE C.V.",PL/10833/EXP/ES/2015,-99.52251,27.44148,20.99,22.99,26.29,,,
13150,RODRIGO PEREZ VEGA,PL/10834/EXP/ES/2015,-98.73183,18.66785,24.5,25.45,26.25,,,
13152,SERVICIOS GASOLINEROS DE MÉXICO S.A. DE C.V.,PL/10835/EXP/ES/2015,-103.5121,25.61228,25.99,26.98,27.69,,,
13153,JOSÉ CRESCENCIANO BECERRIL IGLESIAS,PL/10836/EXP/ES/2015,-99.7541,19.569,24.49,,25.99,,,
13155,GASOLINERA RÍO BALSAS S.A. DE C.V.,PL/10837/EXP/ES/2015,-100.3963,18.16844,,,,,,
13156,JUAN MONTAÑO VELARDE,PL/10838/EXP/ES/2015,0,0,,,,,,
13158,CARLOS VAZQUEZ HERNÁNDEZ,PL/10839/EXP/ES/2015,-115.3023,32.55869,23.45,24.89,24.95,,,
2810,SERVICIO TRECE S.A. DE C.V.,PL/1084/EXP/ES/2015,-101.8521,21.02833,24.49,,25.99,,,
13159,SERVICIOS GASOLINEROS DE MÉXICO S.A. DE C.V.,PL/10840/EXP/ES/2015,-103.5122,25.61066,25.99,26.99,27.69,,,
13161,HUGO FACUNDO POBLETTE POBLETTE,PL/10841/EXP/ES/2015,-99.49302,18.94794,,,,,,
13164,GRUPO GILGA S.A. DE C.V.,PL/10842/EXP/ES/2015,-96.40647,18.07434,23.99,24.79,25.59,,,
13166,GASOLINERA EL TAPATIO S.A. DE C.V.,PL/10843/EXP/ES/2015,-103.3247,20.61243,23.99,25.99,25.39,,,
13167,ECO GS S.A. DE C.V.,PL/10844/EXP/ES/2015,-99.5281,19.1133,24.39,25.66,25.99,,,
13169,"SERVICIOS GASOLINEROS DE MEXICO, S.A. DE C.V.",PL/10845/EXP/ES/2015,-100.3671,25.73729,25.99,27.89,,,,
13170,GAS XL S.A. DE C.V.,PL/10846/EXP/ES/2015,-99.43416,19.17834,24.39,24.99,25.89,,,
13171,GAS XL S.A. DE C.V.,PL/10847/EXP/ES/2015,-99.46416,19.20097,24.39,24.99,25.89,,,
13163,AURELIO MARIN HUAZO,PL/10848/EXP/ES/2015,-98.36899,20.07856,23.8,24.75,,,,
13162,MARÍA OBDULIA PALMA FIERRO,PL/10849/EXP/ES/2015,-107.0307,28.05603,24.69,,25.89,,,
2786,GASOLINERA AEROPUERTO S.A. DE C.V.,PL/1085/EXP/ES/2015,-101.4586,17.62307,24.6,25.4,26.4,,,
13172,ESTACIÓN DE SERVICIO EL PILOTO S.A. DE C.V.,PL/10850/EXP/ES/2015,-110.9101,29.1375,23.99,,26.29,,,
13174,ALCARAZ HERMANOS S.A. DE C.V.,PL/10851/EXP/ES/2015,-99.53079,17.16695,26.18,26.99,26.99,,,
13175,CAMINO REAL ESTACIÓN DE SERVICIO S.A. DE C.V.,PL/10852/EXP/ES/2015,-101.1686,19.70864,24.84,25.99,26.49,,,
13176,SERVICIOS WURTS S.A. DE C.V.,PL/10853/EXP/ES/2015,-97.96387,20.27398,24.65,25.06,26.44,,,
13177,SERVICIOS WURTS S.A. DE C.V.,PL/10854/EXP/ES/2015,-98.01723,20.19953,25.19,25.9,26.95,,,
13179,CERRO DE BISNAGAS S.A. DE C.V.,PL/10855/EXP/ES/2015,-99.15833,20.43723,24.3,24.75,25.66,,,
13178,SERVICIOS RODRÍGUEZ EGUIA S.A. DE C.V.,PL/10856/EXP/ES/2015,-100.5922,23.74746,25.74,26.74,27.09,,,
13180,"GASOLINERA PARIS, S.A. DE C.V.",PL/10857/EXP/ES/2015,-99.1272,19.42106,23.49,,,Ciudad de Mexico,Cuauhtemoc,Calzada de La Viga No. 44
13181,SERVICIOS GASOLINEROS DE MÉXICO S.A. DE C.V.,PL/10858/EXP/ES/2015,-101.8822,21.31805,25.59,27.29,27.19,,,
13182,SERVICIO HUNUCMA S.A. DE C.V.,PL/10859/EXP/ES/2015,-89.85284,21.02632,25.11,26.06,27.11,,,
2989,SERVICIO ARANDAS S.A. DE C.V.,PL/1086/EXP/ES/2015,-101.3493,20.71417,24.99,26.1,26.95,,,
13183,GASOLINERA REMUS S.A. DE C.V.,PL/10860/EXP/ES/2015,-103.3952,20.6662,24.05,26.2,25.9,,,
13184,COMBUSTIBLES DEL ORIENTE DE YÚCATAN S.A. DE C.V.,PL/10861/EXP/ES/2015,-88.15629,21.58729,25.24,,,,,
13185,GASOLINERA SERVICIO ORIENTE S.A. DE C.V.,PL/10862/EXP/ES/2015,-89.57781,20.96015,24.79,25.69,26.89,,,
13186,Sistema Para El Desarrollo Integral de la Familia del Estado de Morelos,PL/10863/EXP/ES/2015,-99.23135,18.92373,,,,,,
13188,GENESIS ESTACIÓN DE SERVICIO S.A. DE C.V.,PL/10864/EXP/ES/2015,-97.35427,19.82323,24.65,25.2,26.3,,,
13190,ESTACIÓN DE SERVICIO SIERRA DEL TIGRE S.A. DE C.V.,PL/10865/EXP/ES/2015,-102.967,19.94267,25.3,26.95,27.4,,,
13191,CARMEN MARÍA JAQUEZ QUIÑONEZ,PL/10866/EXP/ES/2015,-108.0659,25.4565,24.98,25.99,,,,
13192,"SERVICIO SHALON, S.A. DE C.V.",PL/10867/EXP/ES/2015,-100.4407,20.83215,24.99,25.99,25.79,,,
13193,SERVICIO GASOLINERO LAS PAREDES S.A. DE C.V.,PL/10868/EXP/ES/2015,-100.4309,19.29045,,,,,,
13194,CORPORATIVO ENERGÉTICO MAYE S.A. DE C.V.,PL/10869/EXP/ES/2015,-96.95522,18.92542,,,,,,
2798,PLAZA CONSTITUYENTES S.A. DE C.V.,PL/1087/EXP/ES/2015,-99.90124,16.87173,24.99,25.99,26.59,,,
13195,COMBUSTIBLES DE ZAPOTLANEJO S.A. DE C.V.,PL/10870/EXP/ES/2015,-103.1648,20.60647,24.99,26.49,26.09,,,
13198,COMBUSTIBLES EL TROPICO MONTEPIO S.A. DE C.V.,PL/10871/EXP/ES/2015,-95.3864,18.59144,23.29,24.29,24.99,,,
13199,GASOLINERA FAZA S.A. DE C.V.,PL/10872/EXP/ES/2015,-103.4743,25.5346,22.98,,,,,
13201,COMBUSTIBLES SAN ISIDRO S.A. DE C.V.,PL/10873/EXP/ES/2015,-96.38532,19.48322,23.35,24.35,24.95,,,
13202,SERVICIOS GASOLINEROS DE MEXICO S.A. DE C.V.,PL/10874/EXP/ES/2015,-100.3051,25.76288,25.99,27.89,26.69,,,
13209,MANUEL RODRÍGUEZ RODRÍGUEZ,PL/10875/EXP/ES/2015,-101.7728,22.25938,24.99,25.55,26.5,,,
13037,PARADOR SERVICIOS INTEGRALES CORREGIDORA S.A. DE C.V.,PL/10876/EXP/ES/2015,-100.4967,20.53425,24.35,25.28,25.97,,,
13039,SERVICIO COLIMA S. A.,PL/10877/EXP/ES/2015,-99.07964,19.47231,24.85,26.55,,Ciudad de Mexico,Gustavo A. Madero,Avenida Loreto Favela No. 743
13040,ANDRES LUGO AGUILAR,PL/10878/EXP/ES/2015,-98.5393,20.2107,24.09,24.99,26.19,,,
13041,COMBUSTIBLES TAMPICO S.A. DE C.V.,PL/10879/EXP/ES/2015,-97.88766,22.22171,,,,,,
3102,SERVICIO ARANDAS S.A. DE C.V.,PL/1088/EXP/ES/2015,-101.3596,20.69195,24.99,26.1,,,,
13042,GASOLINERA MOPETI S.A. DE C.V.,PL/10880/EXP/ES/2015,-96.14072,18.7475,23.96,24.59,24.95,,,
13044,GRUPO EMPRESARIAL CACHANILLA SA DE CV,PL/10881/EXP/ES/2015,-115.4128,32.66104,23.19,24.59,,,,
13045,INMOBILIARIA Y PROMOTORA DEL GOLFO S.A. DE C.V.,PL/10882/EXP/ES/2015,-95.98896,19.06174,23.84,24.84,,,,
13097,GRUPO CINCO GASOL MEXICANO S.A. DE C.V.,PL/10883/EXP/ES/2015,-98.24804,19.29629,23.59,25.19,,,,
13098,SAN LORENZO TEZONCO S.A. DE C.V.,PL/10884/EXP/ES/2015,-99.07602,19.3228,24.29,25.69,25.79,Ciudad de Mexico,Iztapalapa,Calzada San Lorenzo No. 1147
13100,SERVICIO ATLANGATEPEC S.A. DE C.V.,PL/10885/EXP/ES/2015,-98.13096,19.55744,23.99,24.79,25.69,,,
13101,MOMU S.A. DE C.V.,PL/10886/EXP/ES/2015,-106.3831,23.25494,24.59,25.79,26.35,,,
13102,COMBUSTIBLES Y LUBRICANTES NUEVA ALMADEN S.A. DE C.V.,PL/10887/EXP/ES/2015,-101.4397,26.92022,22.99,26.98,24.28,,,
13103,GRUPO GASOLINERO PARADOR LA JOYA S.A. DE C.V.,PL/10888/EXP/ES/2015,-100.4848,20.57999,22.99,25.47,25.65,,,
13104,COMBUSTIBLES Y LUBRICANTES NUEVA ALMADEN S.A. DE C.V.,PL/10889/EXP/ES/2015,-101.4108,26.91061,22.99,26.58,24.28,,,
2862,HIDROCARBUROS JALTEPEC S.A. DE C.V.,PL/1089/EXP/ES/2015,-98.7449,20.10459,23.94,24.59,,,,
13105,DISTRIBUIDORA DE GASES Y COMBUSTIBLES KAMAR S.A. DE C.V.,PL/10890/EXP/ES/2015,-101.427,26.85553,22.99,26.58,24.28,,,
13106,DISTRIBUIDORA DE GASES Y COMBUSTIBLES KAMAR S.A. DE C.V.,PL/10891/EXP/ES/2015,-101.42,26.89433,22.99,26.98,,,,
13109,SERVICIOS ACEVES S.A. DE C.V.,PL/10892/EXP/ES/2015,-103.3264,20.62435,23.99,25.99,24.99,,,
13110,GASOLINERA OLEODUCTO S.A. DE C.V.,PL/10893/EXP/ES/2015,-103.33,20.58688,23.49,,,,,
13111,GASOLINERIA BELOZ S.A. DE C.V.,PL/10894/EXP/ES/2015,-103.2423,20.4964,22.99,24.99,24.99,,,
13114,PETRO DERIVADOS LOS BAMBUES S.A. DE C.V.,PL/10895/EXP/ES/2015,-100.0302,21.93739,24.23,25.27,25.75,,,
13115,ABASTECEDORA INSURGENTES S.A. DE C.V.,PL/10896/EXP/ES/2015,-99.98286,21.92632,24.23,25.53,25.93,,,
13116,"BP ESTACIONES Y SERVICIOS ENERGETICOS, S.A. DE C.V.",PL/10897/EXP/ES/2015,-99.17289,19.37211,24.99,26.99,,Ciudad de Mexico,Benito Juarez,Felix Cuevas No. 435
13117,ESTACIONES MEXPET S.A. DE C.V.,PL/10898/EXP/ES/2015,-99.22612,18.86908,23.99,24.99,,,,
13118,SERVICIO CASTAÑOS S.A. DE C.V.,PL/10899/EXP/ES/2015,-101.423,26.79649,25.35,27.5,26.88,,,
2925,SERVICIO MENORES S.A. DE C.V.,PL/1090/EXP/ES/2015,-101.6801,21.08473,24.99,26.49,26.59,,,
13120,SILVIA GARZA REYES,PL/10900/EXP/ES/2015,-99.53077,26.4991,,,,,,
13121,ESTACIÓN DE SERVICIOS LA LAGUNA S.A. DE C.V.,PL/10901/EXP/ES/2015,-115.4428,32.60512,22.99,23.99,24.99,,,
13122,SERVICIOS GASOLINEROS DE MÉXICO S.A. DE C.V.,PL/10902/EXP/ES/2015,-100.9719,25.41404,23.99,27.79,,,,
13123,SERVICIOS GASOLINEROS DE MÉXICO S.A. DE C.V.,PL/10903/EXP/ES/2015,-100.2585,25.72548,25.89,27.89,26.99,,,
13124,GASOLINERA TEPALCATEPEC S.A. DE C.V.,PL/10904/EXP/ES/2015,-102.8447,19.1929,26.0,27.0,27.65,,,
13125,COMBUSTIBLES OLA VERDE S.A. DE C.V.,PL/10905/EXP/ES/2015,-104.2922,19.05644,25.3,26.49,26.83,,,
13126,EL ESPOLON S.A. DE C.V.,PL/10906/EXP/ES/2015,-101.4023,22.40771,24.9,26.2,26.5,,,
13127,GRUPO ARBENSAN S.A. DE C.V.,PL/10907/EXP/ES/2015,-107.3689,24.83065,21.99,,22.9,,,
13128,COMERCIALIZADORA DE ENERGÉTICOS AGUA FRIA S.A. DE C.V.,PL/10908/EXP/ES/2015,-98.82169,18.57245,24.22,,25.8,,,
13129,OPERADORA DE MINIESTACIONES COMBUSERV S.A. DE C.V.,PL/10909/EXP/ES/2015,-99.1392,19.42713,24.49,26.49,,Ciudad de Mexico,Cuauhtemoc,Bolivar Esquina San Jeronimo No. 102
2922,ESTACIÓN DE SERVICIOS DON GU S.A. DE C.V.,PL/1091/EXP/ES/2015,-100.8343,20.55448,23.99,25.69,26.19,,,
13131,SANDRA ISAURA CONTRERAS GARCÍA,PL/10910/EXP/ES/2015,-107.3483,24.7359,21.99,23.99,22.79,,,
13133,OPERADORA DE MINIESTACIONES COMBUSERV S.A. DE C.V.,PL/10911/EXP/ES/2015,-99.15272,19.42359,24.49,26.49,,Ciudad de Mexico,Cuauhtemoc,Doctor Carmona Y Valle No. 48
13134,OPERADORA DE MINIESTACIONES COMBUSERV S.A. DE C.V.,PL/10912/EXP/ES/2015,-99.18611,19.61318,24.49,26.49,25.49,,,
13135,REYNALDO BERNARDI MANICA,PL/10913/EXP/ES/2015,-96.8749,19.11921,24.89,,26.49,,,
13136,SERVICIO TEPIC LOS LLANITOS S.A. DE C.V.,PL/10914/EXP/ES/2015,-104.8789,21.49366,23.29,25.99,26.79,,,
13137,VICENTE NAVA BECERRIL,PL/10915/EXP/ES/2015,-101.8005,18.95367,25.6,26.6,27.76,,,
13138,"Corporativo Gasolinero del Caribe, S.A. de C.V.",PL/10916/EXP/ES/2015,-89.6214,21.00104,24.57,25.47,26.67,,,
13139,OPERADORA DE MINIESTACIONES COMBUSERV S.A. DE C.V.,PL/10917/EXP/ES/2015,-99.22359,19.47143,24.49,,25.89,,,
13140,OPERADORA DE MINIESTACIONES COMBUSERV S.A. DE C.V.,PL/10918/EXP/ES/2015,-98.92475,19.40822,23.89,,24.99,,,
13046,NORBERTO RODRIGUEZ JAQUIM,PL/10919/EXP/ES/2015,-95.02547,16.44609,24.25,25.15,26.1,,,
2924,SERVICIO LOPMAN S.A. DE C.V.,PL/1092/EXP/ES/2015,-98.58015,19.79639,23.99,25.25,26.05,,,
13047,EDILIA MONTIJO LEON,PL/10920/EXP/ES/2015,-113.5512,31.30409,,,,,,
13048,ATENCIÓN RAPIDA A CLIENTES TRES S.A. DE C.V.,PL/10921/EXP/ES/2015,-100.3867,20.60652,24.19,25.79,,,,
13049,AUTOSERVICIO DUAL INDEPENDIENTE S.A. DE C.V.,PL/10922/EXP/ES/2015,-115.9353,30.53855,,,,,,
13050,"ENERGETICOS TEPAK, S.A. DE C.V.",PL/10923/EXP/ES/2015,-102.5157,20.73931,24.99,26.15,26.2,,,
13051,ATENCIÓN RAPIDA A CLIENTES DOS S.A. DE C.V.,PL/10924/EXP/ES/2015,-100.4053,20.64049,23.99,25.49,26.49,,,
13052,ESTACIÓN DE SERVICIO PRINCIPAL S.A. DE C.V.,PL/10925/EXP/ES/2015,-103.298,20.62753,22.99,24.99,23.95,,,
13053,SERGIO GABRIEL GARCÍA VILLA,PL/10926/EXP/ES/2015,-100.8434,19.86242,24.95,25.95,26.99,,,
13055,COMBUSTIBLES Y SERVICIOS SAMER S.A. DE C.V.,PL/10927/EXP/ES/2015,-103.3505,20.7911,23.99,26.19,25.39,,,
13057,SERVICIO EL ROBLE S.A. DE C.V.,PL/10928/EXP/ES/2015,-89.63792,21.09891,23.59,24.39,25.29,,,
13059,SERVICIO TEPALCINGO S.A. DE C.V.,PL/10929/EXP/ES/2015,-98.83538,18.61637,24.19,24.99,25.79,,,
2958,SERVICIO TEQUES S.A. DE C.V.,PL/1093/EXP/ES/2015,-99.25037,18.69039,24.79,25.99,26.39,,,
13060,SERVICIO EL ROBLE S.A. DE C.V.,PL/10930/EXP/ES/2015,-89.63692,21.08529,23.59,24.39,25.29,,,
13061,ISIGAS GUADALUPE S.A. DE C.V.,PL/10931/EXP/ES/2015,-100.1706,25.66982,21.79,,24.99,,,
13062,IGNACIO GONZÁLEZ NAVARRETE,PL/10932/EXP/ES/2015,-101.2646,17.53473,24.9,25.8,26.6,,,
13063,CORPORACIÓN GASSI S.A. DE C.V.,PL/10933/EXP/ES/2015,-102.025,19.41318,,,,,,
13064,SERVICIO EL ROBLE S.A. DE C.V.,PL/10934/EXP/ES/2015,-89.75164,20.83696,23.29,24.19,25.29,,,
13065,SERVICIO EL ROBLE S.A. DE C.V.,PL/10935/EXP/ES/2015,-89.74876,20.8392,23.29,24.19,25.29,,,
13068,SERVICIO EL ROBLE S.A. DE C.V.,PL/10936/EXP/ES/2015,-89.68333,20.91452,23.39,24.29,25.49,,,
13067,IGNACIO GONZÁLEZ NAVARRETE,PL/10937/EXP/ES/2015,-101.2879,17.55014,24.9,25.8,26.6,,,
13070,IGNACIO GONZÁLEZ NAVARRETE,PL/10938/EXP/ES/2015,-101.8306,17.93755,24.5,25.4,26.4,,,
13071,IGNACIO GONZÁLEZ NAVARRETE,PL/10939/EXP/ES/2015,-101.5638,17.63937,24.6,24.99,25.99,,,
2992,GRUPO GASOLINERO BUGATTI SA DE CV,PL/1094/EXP/ES/2015,-100.8092,20.4783,23.39,25.17,25.99,,,
13072,MA. DE LOURDES SIERRA OROZCO,PL/10940/EXP/ES/2015,-102.0528,19.15013,25.82,26.82,27.58,,,
13073,MA. DEL CARMEN GONZÁLEZ NAVARRETE,PL/10941/EXP/ES/2015,-101.6997,17.80037,25.08,25.68,26.89,,,
13076,SERVICIO GASTUR S.A. DE C.V.,PL/10942/EXP/ES/2015,-101.6346,21.15098,23.59,25.37,25.69,,,
13078,EXELCO CARBURANTES S.A. DE C.V.,PL/10943/EXP/ES/2015,-99.53496,27.42092,20.99,22.99,26.29,,,
13080,"RIO COLORADO STATION, S.A. DE C.V.",PL/10944/EXP/ES/2015,-114.9948,32.20087,23.89,25.99,25.89,,,
13083,OPERADORA MONSI S.A. DE C.V.,PL/10945/EXP/ES/2015,-96.15934,19.20602,22.29,23.47,24.73,,,
13084,GRUPO GASOLINERO MENDEZ S.A. DE C.V.,PL/10946/EXP/ES/2015,-99.81754,21.64591,24.35,,26.01,,,
13085,PRONTOGAS S.A. DE C.V.,PL/10947/EXP/ES/2015,-106.0873,28.62037,24.49,25.79,,,,
13087,SAN JERONIMO TRUCK STOP S.A. DE C.V.,PL/10948/EXP/ES/2015,-106.6793,31.77823,19.09,21.89,24.59,,,
13088,GRUPO RODELI S.A. DE C.V.,PL/10949/EXP/ES/2015,-100.4196,20.55493,23.19,24.49,,,,
2963,ROBERTO CARRETO MAYORGA E HIJOS S.A. DE C.V.,PL/1095/EXP/ES/2015,-98.42466,18.91774,,,,,,
13089,DISTRIBUIDORA DE ENERGÉTICOS DEL PACIFICO S.A. DE C.V.,PL/10950/EXP/ES/2015,-99.85092,16.84971,24.99,25.99,,,,
13090,DISTRIBUIDORA DE ENERGÉTICOS DEL PACIFICO S.A. DE C.V.,PL/10951/EXP/ES/2015,-99.9267,16.86322,24.74,25.84,25.59,,,
13091,OPEDEC DE MÉXICO S.A. DE C.V.,PL/10952/EXP/ES/2015,-98.0926,19.40566,22.89,25.19,24.22,,,
13092,JESÚS FRANCISCO MEDINA QUIJADA,PL/10953/EXP/ES/2015,-109.5863,30.71861,,,,,,
13094,MARTA ESTELA FLORES MARMOLEJO,PL/10954/EXP/ES/2015,-102.2736,22.126,24.7,25.7,26.7,,,
13095,GRUPO ENERGÉTICO DE JARDINES DE BRAVO S.A. DE C.V.,PL/10955/EXP/ES/2015,-99.14533,25.81301,,,,,,
13096,SERVICIO MARIGAS S.A. DE C.V.,PL/10956/EXP/ES/2015,-98.22831,19.1003,,,,,,
13243,"RALSI , S.A. DE C.V. ",PL/10957/EXP/ES/2015,-107.3749,24.79373,26.0,26.5,27.55,,,
13242,SERVICIO PLAZA JARDÍN S.A. DE C.V.,PL/10958/EXP/ES/2015,-100.2712,25.61994,,,,,,
13244,GASOLINERA TRANSISTMICA S.A. DE C.V.,PL/10959/EXP/ES/2015,-94.43023,18.13649,22.79,23.69,,,,
3007,SERVICIO BENITO S.A. DE C.V.,PL/1096/EXP/ES/2015,-103.9847,23.74037,25.78,27.19,27.59,,,
13245,GASOLINERA SAN MIGUEL ARCANGEL S.A. DE C.V.,PL/10960/EXP/ES/2015,-94.39986,18.05613,22.75,23.45,25.29,,,
13246,SERVICIO PLAZA JARDÍN S.A. DE C.V.,PL/10961/EXP/ES/2015,-100.2837,25.70716,,,,,,
13248,SERVICIO PLAYA DEL MAR S.A. DE C.V.,PL/10962/EXP/ES/2015,-94.46283,18.14988,22.39,22.99,,,,
13249,SERVICIO PLAZA JARDÍN S.A. DE C.V.,PL/10963/EXP/ES/2015,-100.2314,25.67811,,,,,,
13250,DESSERT SÚPER SERVICIOS S.A. DE C.V.,PL/10964/EXP/ES/2015,-103.4353,25.55436,21.95,,25.3,,,
13251,SELMA NOEMI MONTENEGRO ANDRADE,PL/10965/EXP/ES/2015,-103.4953,25.57925,23.49,,,,,
13253,ESTACIÓN DE SERVICIO MINATITLÁN S.A. DE C.V.,PL/10966/EXP/ES/2015,-94.57784,17.99287,22.99,23.79,,,,
13252,SERVICIO PLAZA JARDÍN S.A. DE C.V.,PL/10967/EXP/ES/2015,-100.2653,25.68281,,,,,,
13256,SERV ICIO LAS VIAS DEL TREN S.A. DE C.V.,PL/10968/EXP/ES/2015,-96.08675,18.14674,24.64,,26.39,,,
13257,GENKUN S. DE R. L. DE C. V.,PL/10969/EXP/ES/2015,-98.20203,19.03514,23.99,24.95,,,,
2853,GASOSERVICIOS PREMIER S.A. DE C.V.,PL/1097/EXP/ES/2015,-104.6617,24.0041,25.59,26.69,26.59,,,
13258,"PETRO JESA, S.A. DE C.V. ",PL/10970/EXP/ES/2015,-97.78459,25.66658,,,,,,
13259,JOAQUIN MONTIEL VAZQUEZ,PL/10971/EXP/ES/2015,-96.93177,18.88497,23.88,24.38,25.38,,,
13261,SÚPER SERVICIO SANTIAGUITO S.A. DE C.V.,PL/10972/EXP/ES/2015,-101.1881,19.71326,23.83,25.5,24.78,,,
13262,SERVICIO CHAVANA S.A. DE C.V.,PL/10973/EXP/ES/2015,-100.5087,27.0188,26.37,,26.69,,,
13263,SERVICIO MAPACHAPA S.A. DE C.V.,PL/10974/EXP/ES/2015,-94.55605,18.02512,22.89,23.59,25.29,,,
13255,SUPERSERVICIO LAS POTRANCAS S.A. DE C.V.,PL/10975/EXP/ES/2015,-97.3344,20.45635,24.99,25.99,,,,
13264,GASO MICH MANANTIALES S.A. DE C.V.,PL/10976/EXP/ES/2015,-101.2408,19.69264,24.77,25.55,26.33,,,
13265,SERVICIOS UNIDOS FORTIN S.A. DE C.V.,PL/10977/EXP/ES/2015,-96.99335,18.90127,23.88,,25.38,,,
13266,MINIMERCADOS MEXICANOS S DE RL DE CV,PL/10978/EXP/ES/2015,-117.049,32.40461,24.45,25.89,,,,
13269,GASOLINERA UDI S.A. DE C.V.,PL/10979/EXP/ES/2015,-107.4231,24.77064,22.99,25.99,,,,
2893,OPERADORA LILAS S.A. DE C.V.,PL/1098/EXP/ES/2015,-99.2459,19.38675,,,,,,
13268,ALFREDO FELIX LARA,PL/10980/EXP/ES/2015,-101.4648,26.96382,24.72,26.6,26.5,,,
13270,SERVICIO CRUCERO IQ S.A. DE C.V.,PL/10981/EXP/ES/2015,-105.7879,22.82158,25.22,26.24,26.78,,,
13272,SERVICIO IQ DEL VALLE S.A. DE C.V.,PL/10982/EXP/ES/2015,-105.7403,22.54471,25.69,26.7,26.79,,,
13273,GRUPO FEJEFRA S.A. DE C.V. ,PL/10983/EXP/ES/2015,-98.8671,19.67178,24.69,26.29,26.39,,,
13274,GASOLINERA RUBIOS S.A. DE C.V.,PL/10984/EXP/ES/2015,-108.2305,25.82894,24.89,25.29,,,,
13275,GASOLINERA MAYAR S.A. DE C.V.,PL/10985/EXP/ES/2015,-99.48163,21.23832,,,,,,
13277,SERVICIOS GASOLINEROS DE MEXICO S.A. DE C.V.,PL/10986/EXP/ES/2015,-98.82162,20.01059,24.69,25.98,25.99,,,
13281,SERVICOMBUSTIBLES PALACIOS S.A. DE C.V.,PL/10987/EXP/ES/2015,-99.53048,27.48107,21.1,,,,,
13282,UNIÓN SERVICIOS PROFESIONALES S.A. DE C.V.,PL/10988/EXP/ES/2015,-99.3347,20.04436,24.09,24.99,25.99,,,
13283,GRUPO AUTOPISTA S.A. DE C.V.,PL/10989/EXP/ES/2015,-98.95012,19.31588,,,,,,
3123,FIGUER GAS S.A. DE C.V.,PL/1099/EXP/ES/2015,-99.11988,19.4362,22.73,,25.79,Ciudad de Mexico,Venustiano Carranza,Héroes de Nacozari No. 54
13286,GASOLINERIA LA HACIENDA DE XICO S.A. DE C.V.,PL/10990/EXP/ES/2015,-98.93527,19.27602,23.99,,24.49,,,
13287,COMBUSTIBLES SAYRO S.A. DE C.V.,PL/10991/EXP/ES/2015,-97.81548,25.69336,,,,,,
13288,SERVICIO EXPRESS DEL VALLE DE CHALCO S.A. DE C.V.,PL/10992/EXP/ES/2015,-98.91805,19.28971,22.09,,,,,
13289,IGNACIO ORTEGA GIL,PL/10993/EXP/ES/2015,-99.20458,19.83079,,,,,,
13290,HIDROCARBUROS MODELO S.A. DE C.V.,PL/10994/EXP/ES/2015,-97.80166,18.97848,23.59,24.99,25.49,,,
13292,GASOLINERIA EL ÁGUILA S.A. DE C.V.,PL/10995/EXP/ES/2015,-98.88158,19.25364,22.99,23.99,24.99,,,
13293,PETRO JESA S.A. DE C.V.,PL/10996/EXP/ES/2015,-97.5349,25.89538,18.39,,23.69,,,
13212,SERVICIOS COMBUSTIBLES Y LUB DE MICH S.A. DE C.V.,PL/10997/EXP/ES/2015,-101.2098,19.69829,24.68,25.89,,,,
13213,GASOLINERA FOY PLAN DE AYALA S.A. DE C.V.,PL/10998/EXP/ES/2015,-97.4754,20.55352,24.75,25.8,26.74,,,
13214,SERVICIO AKISHINO S.A. DE C.V.,PL/10999/EXP/ES/2015,-92.27444,14.9,23.36,24.35,24.99,,,
2898,GERTELL COMBUSTIBLES S.A. DE C.V.,PL/1100/EXP/ES/2015,-98.43022,21.13612,24.25,24.6,26.0,,,
13218,CORPORACIÓN ADMINISTRATIVA Y DE OPERACIÓN S.A. DE C.V.,PL/11000/EXP/ES/2015,-106.1016,28.62075,22.68,24.98,,,,
13220,SERVICIO VISTA A LA CANTERA S.A. DE C.V.,PL/11001/EXP/ES/2015,-104.8364,21.48739,24.99,25.99,26.47,,,
13221,ERNESTO GONZÁLEZ FLORES,PL/11002/EXP/ES/2015,-100.2943,18.32947,26.1,,28.3,,,
13223,GRUPO FUERTE MAYO S.A. DE C.V.,PL/11003/EXP/ES/2015,-108.3736,28.19572,,,,,,
13224,SERVICIO NUEVO MÉXICO S.A. DE C.V.,PL/11004/EXP/ES/2015,-103.4161,20.74815,24.38,25.98,25.46,,,
13225,SERVICIO JIPIGO S.A. DE C.V.,PL/11005/EXP/ES/2015,-103.4151,20.43731,23.29,25.39,24.89,,,
13226,ESTACIÓN DE SERVICIO APV S.A. DE C.V.,PL/11006/EXP/ES/2015,-103.4922,20.7213,23.57,25.47,24.77,,,
13230,KIMYS GAS MARKET S. DE R. L.,PL/11007/EXP/ES/2015,-109.7783,29.99988,25.8,26.6,27.7,,,
13231,EDILIA TORRES SILVA,PL/11008/EXP/ES/2015,-101.1793,20.13503,24.55,25.4,26.38,,,
13237,"PETRO JESA, S.A. DE C.V. ",PL/11009/EXP/ES/2015,-97.80013,25.66678,,,,,,
3058,SERVICIO RINCONADA S.A. DE C.V.,PL/1101/EXP/ES/2015,-102.3351,21.98946,24.99,26.89,25.99,,,
13238,GASOLINERA EL MIRADOR S.A. DE C.V.,PL/11010/EXP/ES/2015,-98.19272,19.01798,22.35,23.83,,,,
13241,JESÚS HERMILO SAENZ DE LA GARZA,PL/11011/EXP/ES/2015,-97.81565,25.66049,,,,,,
13294,SERVICIOS VIAL S.A. DE C.V.,PL/11012/EXP/ES/2015,-100.9531,29.33157,21.88,24.0,,,,
13295,GASOLINERIA ESTRELLA DEL CIELO S.A. DE C.V.,PL/11013/EXP/ES/2015,-98.94334,18.8582,23.89,24.99,24.99,,,
13297,AS TURBO S.A. DE C.V.,PL/11014/EXP/ES/2015,-107.3914,24.75503,22.99,,,,,
13298,GASOLINERA DEL CAMPESINO S.A. DE C.V.,PL/11015/EXP/ES/2015,-98.97172,18.73026,25.0,25.5,,,,
13299,UNIÓN SERVICIOS PROFESIONALES S.A. DE C.V.,PL/11016/EXP/ES/2015,-99.34444,19.98176,24.09,24.99,25.99,,,
13302,PETRO FUELS SAN CARLOS SA DE CV,PL/11017/EXP/ES/2015,-99.13322,23.74106,24.69,25.54,25.99,,,
13304,GASOLINERA LA PIRAMIDE S.A. DE C.V.,PL/11018/EXP/ES/2015,-93.00225,16.70853,,,,,,
13305,ESTACIÓN DE SERVICIO CRUZ DORADA S.A. DE C.V.,PL/11019/EXP/ES/2015,-97.45802,16.01149,25.84,26.79,27.35,,,
3152,GASOLINERIA Y SERVICIOS LA VILLA S.A. DE C.V.,PL/1102/EXP/ES/2015,-104.2419,23.84438,25.88,26.88,27.39,,,
13306,ESTACIÓN CALZADA DE GUADALUPE S.A. DE C.V.,PL/11020/EXP/ES/2015,-102.4011,21.04229,25.45,26.5,26.79,,,
13310,LLANTYGAS S.A. DE C.V.,PL/11021/EXP/ES/2015,-100.3449,25.71722,24.69,26.59,,,,
13313,ESTACIÓN DE SERVICIO CRUZ DORADA S.A. DE C.V.,PL/11022/EXP/ES/2015,-97.42611,16.00053,25.84,26.79,27.35,,,
13315,EDUARDO HUACUZ CABALLERO,PL/11023/EXP/ES/2015,-101.2809,19.39311,,,,,,
13343,OPERADORA DE MINIESTACIONES COMBUSERV S.A. DE C.V.,PL/11024/EXP/ES/2015,-99.04774,19.55941,24.49,,25.89,,,
13347,OPERADORA DE MINIESTACIONES COMBUSERV S.A. DE C.V.,PL/11025/EXP/ES/2015,-99.21091,19.54453,24.49,26.39,,,,
13350,YATEGAS S.A. DE C.V.,PL/11026/EXP/ES/2015,-99.90384,16.83549,,26.15,26.85,,,
13352,GRUPO JAGUAR DE OCCIDENTE S.A. DE C.V.,PL/11027/EXP/ES/2015,-103.3341,20.67756,24.2,26.69,,,,
13353,OPERADORA DE MINIESTACIONES COMBUSERV S.A. DE C.V.,PL/11028/EXP/ES/2015,-99.08002,19.37103,24.49,26.39,25.49,Ciudad de Mexico,Iztapalapa,Avenida Javier Rojo Gomez No. 482
13354,OPERADORA DE MINIESTACIONES COMBUSERV S.A. DE C.V.,PL/11029/EXP/ES/2015,-99.2197,19.53417,24.49,26.49,25.89,,,
2866,"SERVICIOS GASOLINEROS DE MEXICO, S.A. DE C.V.",PL/1103/EXP/ES/2015,-100.7532,20.89893,24.79,26.99,,,,
13360,GASALVI S.A. DE C.V.,PL/11030/EXP/ES/2015,-103.3795,20.59925,,,,,,
13364,SAUL RUBIO VALENZUELA,PL/11031/EXP/ES/2015,-108.2246,25.81148,24.89,25.29,,,,
2999,"ENERGIA Y SERVICIOS COORDINADOS, S.A. DE C.V.",PL/1104/EXP/ES/2015,-104.6252,24.02156,25.99,26.99,,,,
2830,SERVICIO RETO EXPRESS S.A. DE C.V.,PL/1105/EXP/ES/2015,-101.2847,20.99187,25.05,26.98,27.01,,,
3030,SERVICIOS GASOLINEROS DE MEXICO S.A. DE C.V.,PL/1106/EXP/ES/2015,-101.2054,20.57933,25.49,27.19,,,,
2846,ORGANIZACIÓN LA LUNA S.A. DE C.V.,PL/1107/EXP/ES/2015,-103.8206,20.3731,25.99,27.39,26.99,,,
2800,GASOSERVICIOS PREMIER S.A. DE C.V.,PL/1108/EXP/ES/2015,-104.6517,24.02152,25.49,26.39,,,,
2957,ORGANIZACIÓN LA LUNA S.A. DE C.V.,PL/1109/EXP/ES/2015,-103.8158,20.3809,25.99,27.39,26.99,,,
3054,GRUPO DISTRIBUIDOR ASOCIADO DE ENERGÉTICOS S.A. DE C.V.,PL/1110/EXP/ES/2015,-99.18058,19.39737,23.98,24.98,,Ciudad de Mexico,Miguel Hidalgo,Avenida Patriotismo No. 191
3059,SERVICIO RINCONADA S.A. DE C.V.,PL/1111/EXP/ES/2015,-102.2451,21.9834,24.98,26.49,26.59,,,
3048,SERVICIO MITA BONFIL S.A. DE C.V.,PL/1112/EXP/ES/2015,-98.78745,20.08021,24.45,25.69,,,,
3160,SÚPER SERVICIO 54 S.A. DE C.V.,PL/1113/EXP/ES/2015,-103.31,20.68573,,26.45,,,,
3006,SERVICIO MONTECARLO S.A. DE C.V.,PL/1114/EXP/ES/2015,-99.20295,18.95725,24.29,25.59,25.99,,,
3118,ESTACIONES DE SERVICIO S.A. DE C.V.,PL/1115/EXP/ES/2015,-100.4662,20.63181,24.39,25.59,,,,
3035,VÍCTOR VILLALOBOS QUINTANA,PL/1116/EXP/ES/2015,-105.481,28.16979,24.09,,25.39,,,
3001,COMBUSTIBLES SOMBRERETE S.A. DE C.V.,PL/1117/EXP/ES/2015,-103.6252,23.64281,25.36,26.46,27.46,,,
2827,GASOLINERA ELIZONDO S.A. DE C.V.,PL/1118/EXP/ES/2015,-104.6716,24.0289,25.58,26.79,,,,
3149,GASOSERVICIOS PREMIER S.A. DE C.V.,PL/1119/EXP/ES/2015,-104.6455,24.01615,25.49,26.39,26.59,,,
3028,CORPORATIVO DE COMBUSTIBLES S.A. DE C.V.,PL/1120/EXP/ES/2015,-101.0039,20.4561,24.39,,26.46,,,
2770,SERVICIO MACUILTEPEC S.A. DE C.V.,PL/1121/EXP/ES/2015,-96.92886,19.56713,24.6,25.6,26.3,,,
3036,LUZ MARÍA OLVERA ACEVEDO,PL/1122/EXP/ES/2015,-103.6369,23.60794,25.35,26.65,27.45,,,
12136,GASOLINERA GUACAMAYAS S.A. DE C.V.,PL/11224/EXP/ES/2015,-102.2182,17.98792,23.98,24.96,25.87,,,
12294,INMOBILIARIA RUSH S.A. DE C.V.,PL/11225/EXP/ES/2015,-98.23748,19.1861,23.44,24.7,,,,
12295,AUTO SERVICIO GUARDIA S.A. DE C.V.,PL/11226/EXP/ES/2015,-98.19064,19.40435,23.57,24.5,25.88,,,
12491,ALEJANDRO MARIO OCHOA FRAGOSO,PL/11227/EXP/ES/2015,-99.05305,19.54943,24.59,25.99,25.99,,,
12661,GASONORTE DEL 106 S.A. DE C.V.,PL/11228/EXP/ES/2015,-107.0353,28.78003,23.3,25.25,24.25,,,
12711,"SERVICIO ESPINOSA BRISEÑO DE TUXPAN NAYARIT, S.A. DE C.V.",PL/11229/EXP/ES/2015,-105.2975,21.94347,25.1,26.2,26.5,,,
2757,GASOLINERIA VILLAS JEMI S.A. DE C.V.,PL/1123/EXP/ES/2015,-101.5795,21.10694,25.19,26.1,27.1,,,
12769,VANGUARDIA EN GASOLINERAS S.A. DE C.V.,PL/11230/EXP/ES/2015,-103.1414,20.87387,26.1,27.1,26.99,,,
12811,TRASAGAS S.A. DE C.V.,PL/11231/EXP/ES/2015,-103.3898,20.59455,24.29,26.29,25.89,,,
12809,ESTACIÓN ENERGÉTICA LOS ANGELES S.A. DE C.V.,PL/11232/EXP/ES/2015,-100.3271,25.70942,23.89,27.29,26.39,,,
13004,PATAMBANANAPU S.A. DE C.V.,PL/11233/EXP/ES/2015,-102.2196,19.83728,25.09,26.05,26.85,,,
13187,GRUPO GASOLINERO PINOLA S.A. DE C.V.,PL/11234/EXP/ES/2015,-92.37486,16.37629,25.35,,27.72,,,
13316,"3 BRES, S.A. DE C.V.",PL/11235/EXP/ES/2015,-94.45093,18.12308,22.39,23.09,24.68,,,
13319,SUMINISTRADORA DE COMBUSTIBLES Y LUBRICANTES DE PUERTO MADERO S.A. DE C.V.,PL/11236/EXP/ES/2015,-92.39935,14.70484,,,,,,
13322,ADMINISTRADORA DEL COLORADO S. DE R.L. DE C.V.,PL/11237/EXP/ES/2015,-114.9171,32.52375,22.95,,24.52,,,
13328,GASOLINERA TURYMAYO S.A. DE C.V.,PL/11238/EXP/ES/2015,-109.4524,27.06983,,,,,,
13331,GASOLINERA TURYMAYO S.A. DE C.V.,PL/11239/EXP/ES/2015,-109.4442,27.08016,,,,,,
2806,"COMBU-EXPRESS, S.A. DE C.V.",PL/1124/EXP/ES/2015,-103.2685,20.60878,24.19,26.79,25.19,,,
13332,GUERRERO GASOLINEROS S.A. DE C.V.,PL/11240/EXP/ES/2015,-100.4364,26.49947,25.85,,26.5,,,
13334,GUERRERO GUTIERREZ S.A. DE C.V.,PL/11241/EXP/ES/2015,-100.4975,26.53941,25.65,,,,,
13341,HABIB DAVID HADAD DE LA ROSA,PL/11242/EXP/ES/2015,-102.8053,25.35032,,,,,,
13369,ALDIA S.A. DE C.V.,PL/11243/EXP/ES/2015,-98.20509,19.0257,23.99,25.05,,,,
13373,SANCRIS S.A. DE C.V.,PL/11244/EXP/ES/2015,-101.4319,20.39626,24.89,25.9,26.39,,,
13376,ALDIA S.A. DE C.V.,PL/11245/EXP/ES/2015,-96.92269,19.56066,24.45,25.39,,,,
13379,ALDIA S.A. DE C.V.,PL/11246/EXP/ES/2015,-98.29624,19.0625,23.85,25.04,25.4,,,
13380,"GASOLINERA DE LA REGION, S.A. DE C.V.",PL/11247/EXP/ES/2015,-102.058,19.37319,24.47,25.67,26.67,,,
